{
  "features": [
  {
    "unique_id": "88-67be18dc8e8525811bf87516bb5e9edf-5cf15fc7e77e85f5d525727358c0ffc9",
    "store_id": "",
    "StoreName": "",
    "StoreNumber": "",
    "ChainId": 88,
    "ChainName": "ALDI",
    "Label": "ALDI",
    "Address": "8977 Tehama Ridge Parkway",
    "Address2": "",
    "City": "Ft. Worth",
    "PostalCode": 76177,
    "State": "TX",
    "Latitude": 32.9035815,
    "Longitude": -97.3229721
  },
  {
    "unique_id": "88-307632cb577de9ab4454ce2af1186bbd-d41d8cd98f00b204e9800998ecf8427e",
    "store_id": "",
    "StoreName": "",
    "StoreNumber": "",
    "ChainId": 88,
    "ChainName": "ALDI",
    "Label": "ALDI",
    "Address": "6150 N Josey Lane",
    "Address2": "",
    "City": "Lewisville",
    "PostalCode": 75056,
    "State": "TX",
    "Latitude": 33.0617097,
    "Longitude": -96.8858639
  },
  {
    "unique_id": "88-8738d6300291b42156b141e3d000c3cd-5cf15fc7e77e85f5d525727358c0ffc9",
    "store_id": "",
    "StoreName": "",
    "StoreNumber": "",
    "ChainId": 88,
    "ChainName": "ALDI",
    "Label": "ALDI",
    "Address": "401 B North US Hwy. 77",
    "Address2": "",
    "City": "Waxahachie",
    "PostalCode": "75165-1874",
    "State": "TX",
    "Latitude": 32.4069725,
    "Longitude": -96.8440806
  },
  {
    "unique_id": "733-6bdf96d9be5c8acca2c507d9c8f3ca6c-7f4c1287832ac37d4ac69d805ba6cf0c",
    "store_id": "",
    "StoreName": "Brookshire Brothers",
    "StoreNumber": 99,
    "ChainId": 733,
    "ChainName": "Brookshire Brothers",
    "Label": "Brookshire Brothers",
    "Address": "113 W. HWY 67",
    "Address2": "",
    "City": "Venus",
    "PostalCode": 76084,
    "State": "TX",
    "Latitude": 32.4344246,
    "Longitude": -97.1066719
  },
  {
    "unique_id": "733-4826acb350818d2012388cb843944fa0-88137e6a34e992feb3cf6f9aefb555dc",
    "store_id": "",
    "StoreName": "Pecan Foods",
    "StoreNumber": 101,
    "ChainId": 733,
    "ChainName": "Brookshire Brothers",
    "Label": "Brookshire Brothers",
    "Address": "9201 Plantation Boulevard",
    "Address2": "",
    "City": "Granbury",
    "PostalCode": 76049,
    "State": "TX",
    "Latitude": 32.370649,
    "Longitude": -97.657422
  },
  {
    "unique_id": "733-a3772dd46b0ffa94f0339c708421568b-3dd814570939bf15fd6c26c7c57c5e90",
    "store_id": "",
    "StoreName": "David's",
    "StoreNumber": 108,
    "ChainId": 733,
    "ChainName": "Brookshire Brothers",
    "Label": "Brookshire Brothers",
    "Address": "600 E. Mulberry",
    "Address2": "",
    "City": "Kaufman",
    "PostalCode": 75142,
    "State": "TX",
    "Latitude": 32.5881432,
    "Longitude": -96.3045304
  },
  {
    "unique_id": "733-25cfc3af23f0fb6f8bf26479ff85418d-8e717c31acd888f8e7c2993592a857a1",
    "store_id": "",
    "StoreName": "David's",
    "StoreNumber": 107,
    "ChainId": 733,
    "ChainName": "Brookshire Brothers",
    "Label": "Brookshire Brothers",
    "Address": "205 Austin Rd.",
    "Address2": "",
    "City": "Glen Rose",
    "PostalCode": 76043,
    "State": "TX",
    "Latitude": 32.2309199,
    "Longitude": -97.7520798
  },
  {
    "unique_id": "733-5b95cbfbf8e41ff736356de62c1f884e-0f5c1f4f2b55ecfaf46ee6ad9618010c",
    "store_id": "",
    "StoreName": "David's",
    "StoreNumber": 106,
    "ChainId": 733,
    "ChainName": "Brookshire Brothers",
    "Label": "Brookshire Brothers",
    "Address": "5210 Acton Hwy",
    "Address2": "",
    "City": "Acton",
    "PostalCode": 76048,
    "State": "TX",
    "Latitude": 32.4459455,
    "Longitude": -97.7011492
  },
  {
    "unique_id": "733-07e02cf4893a846194c18780b9bc5ba2-ffb80487feab43eaf2c43072a00dc2cd",
    "store_id": "",
    "StoreName": "David's",
    "StoreNumber": 103,
    "ChainId": 733,
    "ChainName": "Brookshire Brothers",
    "Label": "Brookshire Brothers",
    "Address": "100 S.Spears",
    "Address2": "",
    "City": "Alvarado",
    "PostalCode": 76009,
    "State": "TX",
    "Latitude": 32.4065933,
    "Longitude": -97.213089
  },
  {
    "unique_id": "733-eb87980588b10e8615d36f5d4016f3c1-f0d710770bba481cf268918209d96945",
    "store_id": "",
    "StoreName": "David's",
    "StoreNumber": 96,
    "ChainId": 733,
    "ChainName": "Brookshire Brothers",
    "Label": "Brookshire Brothers",
    "Address": "2305 Lipan Hwy.",
    "Address2": "",
    "City": "Granbury",
    "PostalCode": 76048,
    "State": "TX",
    "Latitude": 32.47408,
    "Longitude": -97.816365
  },
  {
    "unique_id": "734-5a5c22478e19a9eadd2c4bbf2e1bd631-4459be3f24be8f74955c2fb158cc4770",
    "store_id": "",
    "StoreName": "",
    "StoreNumber": 5882,
    "ChainId": 734,
    "ChainName": "Brookshire's Grocery Company",
    "Label": "Brookshire's Grocery Company",
    "Address": "1203 Hwy 380",
    "Address2": "",
    "City": "Bridgeport",
    "PostalCode": 76426,
    "State": "TX",
    "Latitude": 33.2248778,
    "Longitude": -97.754847
  },
  {
    "unique_id": "734-5e3c47ff26a7d0c1146c61137ee3acad-77f9c9a06159b8791ad36227d7bdd875",
    "store_id": "",
    "StoreName": "",
    "StoreNumber": 1182,
    "ChainId": 734,
    "ChainName": "Brookshire's Grocery Company",
    "Label": "Brookshire's Grocery Company",
    "Address": "105 E Ovilla Rd",
    "Address2": "",
    "City": "Red Oak",
    "PostalCode": 75154,
    "State": "TX",
    "Latitude": 32.530608,
    "Longitude": -96.8181098
  },
  {
    "unique_id": "734-4d085328f88c6fafda944e58403994d1-8eaffd461c2e65c1f2fcbd8a4fad7748",
    "store_id": "",
    "StoreName": "",
    "StoreNumber": 1198,
    "ChainId": 734,
    "ChainName": "Brookshire's Grocery Company",
    "Label": "Brookshire's Grocery Company",
    "Address": "719 S I-35 E",
    "Address2": "",
    "City": "Denton",
    "PostalCode": 76205,
    "State": "TX",
    "Latitude": 33.1946091,
    "Longitude": -97.122543
  },
  {
    "unique_id": "734-26f8a16671cd31030f10949984e38161-d1fe2782a9126d3e5b5312d8cc8e8263",
    "store_id": "",
    "StoreName": "",
    "StoreNumber": 1180,
    "ChainId": 734,
    "ChainName": "Brookshire's Grocery Company",
    "Label": "Brookshire's Grocery Company",
    "Address": "125 Hall Rd",
    "Address2": "",
    "City": "Seagoville",
    "PostalCode": 75159,
    "State": "TX",
    "Latitude": 32.6497829,
    "Longitude": -96.5485698
  },
  {
    "unique_id": "734-b4e2894b15c5fbfec625fe70e9f5148c-75cd7d1716c5ab2273da81b50a96b9bd",
    "store_id": "",
    "StoreName": "",
    "StoreNumber": 1118,
    "ChainId": 734,
    "ChainName": "Brookshire's Grocery Company",
    "Label": "Brookshire's Grocery Company",
    "Address": "675 Sunset Blvd",
    "Address2": "",
    "City": "Celina",
    "PostalCode": 75009,
    "State": "TX",
    "Latitude": 33.313035,
    "Longitude": -96.7774445
  },
  {
    "unique_id": "734-38ac3a719041d355c55f0ae5019999ce-1dccfdd5edd61018c85a4af8cd44b4a5",
    "store_id": "",
    "StoreName": "",
    "StoreNumber": 1131,
    "ChainId": 734,
    "ChainName": "Brookshire's Grocery Company",
    "Label": "Brookshire's Grocery Company",
    "Address": "427 Pinson Rd",
    "Address2": "",
    "City": "Forney",
    "PostalCode": 75126,
    "State": "TX",
    "Latitude": 32.7548008,
    "Longitude": -96.4702172
  },
  {
    "unique_id": "734-7fe04b769a90a64b83f90f50b00d13fa-d3288397ce0821a5c664da180a7d9cd5",
    "store_id": "",
    "StoreName": "",
    "StoreNumber": 1144,
    "ChainId": 734,
    "ChainName": "Brookshire's Grocery Company",
    "Label": "Brookshire's Grocery Company",
    "Address": "2235 S Washington St",
    "Address2": "",
    "City": "Kaufman",
    "PostalCode": 75142,
    "State": "TX",
    "Latitude": 32.5696493,
    "Longitude": -96.31281
  },
  {
    "unique_id": "734-8bbcdc9355a709ea7bd7b2fb9e03af05-897726cbd6a8a0957bffd258e395483a",
    "store_id": "",
    "StoreName": "",
    "StoreNumber": 1103,
    "ChainId": 734,
    "ChainName": "Brookshire's Grocery Company",
    "Label": "Brookshire's Grocery Company",
    "Address": "1400 W Moore St",
    "Address2": "",
    "City": "Terrell",
    "PostalCode": 75160,
    "State": "TX",
    "Latitude": 32.7389262,
    "Longitude": -96.2977953
  },
  {
    "unique_id": "734-aaa60474f62e3e5a154391ca797f398c-ed9939803666dcf13d3f061563b129b7",
    "store_id": "",
    "StoreName": "",
    "StoreNumber": 1787,
    "ChainId": 734,
    "ChainName": "Brookshire's Grocery Company",
    "Label": "Brookshire's Grocery Company",
    "Address": "1325 W White St",
    "Address2": "",
    "City": "Anna",
    "PostalCode": 75409,
    "State": "TX",
    "Latitude": 33.3427808,
    "Longitude": -96.5660152
  },
  {
    "unique_id": "734-6806cfecd6d9aaaa6973ff7666ab1001-ec3907ad1defec5e0c7cfbca44e57711",
    "store_id": "",
    "StoreName": "",
    "StoreNumber": 1515,
    "ChainId": 734,
    "ChainName": "Brookshire's Grocery Company",
    "Label": "Brookshire's Grocery Company",
    "Address": "1705 Audie Murphy Pkwy W",
    "Address2": "",
    "City": "Farmersville",
    "PostalCode": 75442,
    "State": "TX",
    "Latitude": 33.1573577,
    "Longitude": -96.3888834
  },
  {
    "unique_id": "734-5a24e8283fe680127eb7c052a95baa57-01c1f56d09a8267ae886f2e0ba7a2e52",
    "store_id": "",
    "StoreName": "",
    "StoreNumber": 1130,
    "ChainId": 734,
    "ChainName": "Brookshire's Grocery Company",
    "Label": "Brookshire's Grocery Company",
    "Address": "8934 Hwy 34 S",
    "Address2": "",
    "City": "Quinlan",
    "PostalCode": 75474,
    "State": "TX",
    "Latitude": 32.904846,
    "Longitude": -96.126429
  },
  {
    "unique_id": "734-0da0b228a0a7929f94bf087577103a9e-c940a395371017f8effee3f4df6d8796",
    "store_id": "",
    "StoreName": "",
    "StoreNumber": 1119,
    "ChainId": 734,
    "ChainName": "Brookshire's Grocery Company",
    "Label": "Brookshire's Grocery Company",
    "Address": "6410 Wesley St",
    "Address2": "",
    "City": "Greenville",
    "PostalCode": 75402,
    "State": "TX",
    "Latitude": 33.105229,
    "Longitude": -96.1109199
  },
  {
    "unique_id": "734-e48534c6bc70dd74080bf6f96fff8145-540d1e1d3a49e56991f6e3751716f7ad",
    "store_id": "",
    "StoreName": "",
    "StoreNumber": 1160,
    "ChainId": 734,
    "ChainName": "Brookshire's Grocery Company",
    "Label": "Brookshire's Grocery Company",
    "Address": "1603 Culver St",
    "Address2": "",
    "City": "Commerce",
    "PostalCode": 75428,
    "State": "TX",
    "Latitude": 33.2360369,
    "Longitude": -95.9044305
  },
  {
    "unique_id": "1008-7ebb23e0bbf4b278ca857b8c4f0c3c87-0db8a0043021b5383b66e331aa6d6614",
    "store_id": "",
    "StoreName": "FORT WORTH",
    "StoreNumber": "",
    "ChainId": 1008,
    "ChainName": "Central Market",
    "Label": "Central Market",
    "Address": "4651 West Fwy",
    "Address2": "",
    "City": "Fort Worth",
    "PostalCode": 76107,
    "State": "TX",
    "Latitude": 32.729795,
    "Longitude": -97.389076
  },
  {
    "unique_id": "1273-27c977e8767f7da1f66f6c90e3dbe8f1-a87991a3f39a8d74daaeffa8ac1c8877",
    "store_id": "",
    "StoreName": "McKinney",
    "StoreNumber": 1284,
    "ChainId": 1273,
    "ChainName": "Costco Wholesale",
    "Label": "Costco",
    "Address": "3650 W UNIVERSITY DR",
    "Address2": "",
    "City": "MCKINNEY",
    "PostalCode": 75071,
    "State": "TX",
    "Latitude": 33.218,
    "Longitude": -96.664
  },
  {
    "unique_id": "1273-f056f7f6d314895f73a84e5cd776fe13-45ce222fc2a9dca11c468427d9ca8ac6",
    "store_id": "",
    "StoreName": "Rockwall",
    "StoreNumber": 1049,
    "ChainId": 1273,
    "ChainName": "Costco Wholesale",
    "Label": "Costco",
    "Address": "1225 STATE HIGHWAY 276",
    "Address2": "",
    "City": "ROCKWALL",
    "PostalCode": "75032-9376",
    "State": "TX",
    "Latitude": 32.9087304,
    "Longitude": -96.4454985
  },
  {
    "unique_id": "1273-a1e6f89ce0f603f60ed2e5d11cc744ab-eba9bc06b95f78749bd9f80fee3c9f62",
    "store_id": "",
    "StoreName": "Frisco",
    "StoreNumber": 1097,
    "ChainId": 1273,
    "ChainName": "Costco Wholesale",
    "Label": "Costco",
    "Address": "11220 DALLAS PKWY",
    "Address2": "",
    "City": "FRISCO",
    "PostalCode": "75033-4102",
    "State": "TX",
    "Latitude": 33.171634,
    "Longitude": -96.8369119
  },
  {
    "unique_id": "1273-5ac86408bfd564dad91d50dbcf24640e-a22175f52278a94b201dd5b84667ada7",
    "store_id": "",
    "StoreName": "E Plano",
    "StoreNumber": 664,
    "ChainId": 1273,
    "ChainName": "Costco Wholesale",
    "Label": "Costco",
    "Address": "3800 N CENTRAL EXPY",
    "Address2": "",
    "City": "PLANO",
    "PostalCode": "75074-2221",
    "State": "TX",
    "Latitude": 33.0441728,
    "Longitude": -96.6992358
  },
  {
    "unique_id": "1273-61cb55a3af8dbed3373a462e9e007b44-e03cafdb8871684a5bcfd8c836624250",
    "store_id": "",
    "StoreName": "W Plano",
    "StoreNumber": 684,
    "ChainId": 1273,
    "ChainName": "Costco Wholesale",
    "Label": "Costco",
    "Address": "1701 DALLAS PKWY",
    "Address2": "",
    "City": "PLANO",
    "PostalCode": "75093-4520",
    "State": "TX",
    "Latitude": 33.0239941,
    "Longitude": -96.8319289
  },
  {
    "unique_id": "1273-f5860659835ee8adc90c92d486b6cfd5-ef3406c7dcebde41bf2b7b661f7c6722",
    "store_id": "",
    "StoreName": "Dallas",
    "StoreNumber": 1266,
    "ChainId": 1273,
    "ChainName": "Costco Wholesale",
    "Label": "Costco",
    "Address": "8055 CHURCHILL WAY",
    "Address2": "",
    "City": "DALLAS",
    "PostalCode": "75251-2149",
    "State": "TX",
    "Latitude": 32.9190725,
    "Longitude": -96.7680839
  },
  {
    "unique_id": "1273-dedd532b3618ac13faf03f3adb9c682b-3dfdcf1e20d7e6324433ae5e9e2e6408",
    "store_id": "",
    "StoreName": "Lewisville",
    "StoreNumber": 683,
    "ChainId": 1273,
    "ChainName": "Costco Wholesale",
    "Label": "Costco",
    "Address": "851 STATE HIGHWAY 121 BYP",
    "Address2": "",
    "City": "LEWISVILLE",
    "PostalCode": "75067-4158",
    "State": "TX",
    "Latitude": 32.9983496,
    "Longitude": -96.9635928
  },
  {
    "unique_id": "1273-d5e9ec9c35b3d636c4449df9d4eb67be-7c5faf7fbf73aa7cd458d8d4035c5d49",
    "store_id": "",
    "StoreName": "N Fort Worth",
    "StoreNumber": 1173,
    "ChainId": 1273,
    "ChainName": "Costco Wholesale",
    "Label": "Costco",
    "Address": "8900 TEHAMA RIDGE PKWY",
    "Address2": "",
    "City": "FORT WORTH",
    "PostalCode": "76177-2004",
    "State": "TX",
    "Latitude": 32.9013164,
    "Longitude": -97.3200777
  },
  {
    "unique_id": "1273-cab16ce237e459d67593a9c6ca488b80-db0b317586774c2af4fc409bc815fbaf",
    "store_id": "",
    "StoreName": "Southlake",
    "StoreNumber": 669,
    "ChainId": 1273,
    "ChainName": "Costco Wholesale",
    "Label": "Costco",
    "Address": "2601 E STATE HIGHWAY 114",
    "Address2": "",
    "City": "SOUTHLAKE",
    "PostalCode": "76092-6668",
    "State": "TX",
    "Latitude": 32.9414159,
    "Longitude": -97.1120163
  },
  {
    "unique_id": "1273-b9f55dec445d52962e8e69c00f8704da-f865990bdcdbc9c13c8223660d70efd9",
    "store_id": "",
    "StoreName": "Fort Worth",
    "StoreNumber": 489,
    "ChainId": 1273,
    "ChainName": "Costco Wholesale",
    "Label": "Costco",
    "Address": "5300 OVERTON RIDGE BLVD",
    "Address2": "",
    "City": "FORT WORTH",
    "PostalCode": "76132-3301",
    "State": "TX",
    "Latitude": 32.676,
    "Longitude": -97.405
  },
  {
    "unique_id": "1273-cc9c96f0f8ea7ceeb0071ce32aaeb670-c5a2e9c1a6be725ffad39c6e5a92a523",
    "store_id": "",
    "StoreName": "Duncanville",
    "StoreNumber": 636,
    "ChainId": 1273,
    "ChainName": "Costco Wholesale",
    "Label": "Costco",
    "Address": "250 W HIGHWAY 67",
    "Address2": "",
    "City": "DUNCANVILLE",
    "PostalCode": "75137-4415",
    "State": "TX",
    "Latitude": 32.621252,
    "Longitude": -96.9100306
  },
  {
    "unique_id": "1273-cad988d56528a8ecfdca28eb3d6ce2d6-f67d5874cff2027cbd0a51ca8476a21b",
    "store_id": "",
    "StoreName": "Arlington",
    "StoreNumber": 668,
    "ChainId": 1273,
    "ChainName": "Costco Wholesale",
    "Label": "Costco",
    "Address": "600 W ARBROOK BLVD",
    "Address2": "",
    "City": "ARLINGTON",
    "PostalCode": "76014-3702",
    "State": "TX",
    "Latitude": 32.6837134,
    "Longitude": -97.1129292
  },
  {
    "unique_id": "1397-385d9c9dab0a8392a268f3c47479831d-4c05acdbd37427d134e76739442d3e07",
    "store_id": "",
    "StoreName": "Fort Worth NAS Commissary",
    "StoreNumber": "",
    "ChainId": 1397,
    "ChainName": "Defense Commissary Agency (DeCA)",
    "Label": "Defense Commissary Agency (DeCA)",
    "Address": "1765 Military Parkway",
    "Address2": "",
    "City": "Fort Worth",
    "PostalCode": 76127,
    "State": "TX",
    "Latitude": 32.7800571,
    "Longitude": -97.4254865
  },
  {
    "unique_id": "1496-a894157b8303bd105a3e89dc85e963cb-0e76b43dbf034d5a918aa9bbbab99a2a",
    "store_id": "",
    "StoreName": "North Richland Hills",
    "StoreNumber": "",
    "ChainId": 1496,
    "ChainName": "Dream Dinners",
    "Label": "Dream Dinners",
    "Address": "8528 Davis Blvd",
    "Address2": "",
    "City": "North Richland Hills",
    "PostalCode": 76182,
    "State": "TX",
    "Latitude": 32.9081463,
    "Longitude": -97.1892003
  },
  {
    "unique_id": "1496-a21232c102d7de177d60a84a2a381cd9-cb291150fbfe0dc3747940bbfe61cb59",
    "store_id": "",
    "StoreName": "Frisco",
    "StoreNumber": "",
    "ChainId": 1496,
    "ChainName": "Dream Dinners",
    "Label": "Dream Dinners",
    "Address": "7010 Preston Road",
    "Address2": "",
    "City": "Frisco",
    "PostalCode": 75035,
    "State": "TX",
    "Latitude": 33.1366372,
    "Longitude": -96.8024885
  },
  {
    "unique_id": "1596-a9bb970a02a68b4197a4d7e616574da8-6620224467fbf3feb9d5c34ff6b836f0",
    "store_id": "",
    "StoreName": "El Ahorro Supermarket #8",
    "StoreNumber": 8,
    "ChainId": 1596,
    "ChainName": "El Ahorro Supermarket",
    "Label": "El Ahorro Supermarket",
    "Address": "1927 E Belt Line Rd",
    "Address2": "",
    "City": "Carrollton",
    "PostalCode": 75006,
    "State": "TX",
    "Latitude": 32.9552016,
    "Longitude": -96.8867872
  },
  {
    "unique_id": "1596-6bf3367181c098b524590245189d6567-61cd6e991f0253a123383be6a5285e3c",
    "store_id": "",
    "StoreName": "El Ahorro Supermarket #12",
    "StoreNumber": 12,
    "ChainId": 1596,
    "ChainName": "El Ahorro Supermarket",
    "Label": "El Ahorro Supermarket",
    "Address": "201 S Rogers Rd",
    "Address2": "",
    "City": "Irving",
    "PostalCode": 75060,
    "State": "TX",
    "Latitude": 32.8140395,
    "Longitude": -96.9645552
  },
  {
    "unique_id": "1604-2665c1de02ef64174e9ca283db8ed029-fdae1d2e303b0aabd4c199ff80ce6d32",
    "store_id": "",
    "StoreName": "",
    "StoreNumber": 16,
    "ChainId": 1604,
    "ChainName": "El Rancho Supermercado",
    "Label": "El Rancho Supermercado",
    "Address": "4450 W. Jefferson Blvd.",
    "Address2": "",
    "City": "Dallas",
    "PostalCode": 75211,
    "State": "TX",
    "Latitude": 32.735539,
    "Longitude": -96.892852
  },
  {
    "unique_id": "1604-24c366f4338530167f0f17608f2b325d-d41d8cd98f00b204e9800998ecf8427e",
    "store_id": "",
    "StoreName": "",
    "StoreNumber": 31,
    "ChainId": 1604,
    "ChainName": "El Rancho Supermercado",
    "Label": "El Rancho Supermercado",
    "Address": "506 S. Beltline Road",
    "Address2": "",
    "City": "Grand Prairie",
    "PostalCode": 75051,
    "State": "TX",
    "Latitude": 32.70801031,
    "Longitude": -96.99289112
  },
  {
    "unique_id": "1604-7f1284f0215fe1ce92ce631a4c811783-9658fceff8002eb9b5b5d85a3f080b1e",
    "store_id": "",
    "StoreName": "",
    "StoreNumber": 9,
    "ChainId": 1604,
    "ChainName": "El Rancho Supermercado",
    "Label": "El Rancho Supermercado",
    "Address": "1909 E. Park Row Dr.",
    "Address2": "",
    "City": "Arlington",
    "PostalCode": 76010,
    "State": "TX",
    "Latitude": 32.7221497,
    "Longitude": -97.0790209
  },
  {
    "unique_id": "1604-e3cf99a6201c48b4eedfd675bea595d1-b0df914a36563dc7a59cad215732aaaf",
    "store_id": "",
    "StoreName": "",
    "StoreNumber": 23,
    "ChainId": 1604,
    "ChainName": "El Rancho Supermercado",
    "Label": "El Rancho Supermercado",
    "Address": "3220 North Main Street",
    "Address2": "",
    "City": "Fort Worth",
    "PostalCode": 76106,
    "State": "TX",
    "Latitude": 32.8041221,
    "Longitude": -97.3501757
  },
  {
    "unique_id": "1604-9d3b7d53e20febe82edbe06645d0288a-c46e6416e5aa25835457daaf3428701c",
    "store_id": "",
    "StoreName": "",
    "StoreNumber": 23,
    "ChainId": 1604,
    "ChainName": "El Rancho Supermercado",
    "Label": "El Rancho Supermercado",
    "Address": "1212 N. Beach St.",
    "Address2": "",
    "City": "Fort Worth",
    "PostalCode": 76111,
    "State": "TX",
    "Latitude": 32.7804735,
    "Longitude": -97.2897318
  },
  {
    "unique_id": "1604-1114163e3351976429600f0d11a5c82f-4932a9ac089152acf788aa5d80d51cdc",
    "store_id": "",
    "StoreName": "",
    "StoreNumber": 27,
    "ChainId": 1604,
    "ChainName": "El Rancho Supermercado",
    "Label": "El Rancho Supermercado",
    "Address": "4812 South Freeway",
    "Address2": "",
    "City": "Fort Worth",
    "PostalCode": 76115,
    "State": "TX",
    "Latitude": 32.6757798,
    "Longitude": -97.3216568
  },
  {
    "unique_id": "1604-dc4d4ea122967729dab22eda88c8116c-46830c4bd437e89b4aafd6d8cbb74448",
    "store_id": "",
    "StoreName": "",
    "StoreNumber": 12,
    "ChainId": 1604,
    "ChainName": "El Rancho Supermercado",
    "Label": "El Rancho Supermercado",
    "Address": "701 S.Stemmons Frwy, #150",
    "Address2": "",
    "City": "Lewisville",
    "PostalCode": 75067,
    "State": "TX",
    "Latitude": 33.037289,
    "Longitude": -97.004664
  },
  {
    "unique_id": "1604-a8bc8de5d9e6194ad5277d7d8a34bb2e-e0d451c2041b803556e63c042060bd70",
    "store_id": "",
    "StoreName": "",
    "StoreNumber": 30,
    "ChainId": 1604,
    "ChainName": "El Rancho Supermercado",
    "Label": "El Rancho Supermercado",
    "Address": "821 N. Mcdonald Street",
    "Address2": "",
    "City": "Mckinney",
    "PostalCode": 75069,
    "State": "TX",
    "Latitude": 33.2060438,
    "Longitude": -96.6119818
  },
  {
    "unique_id": "1604-16cbb795d06770fb8929bebb4a3e4920-9d7e64e7f3d8fa2c9df687fd74546f2d",
    "store_id": "",
    "StoreName": "",
    "StoreNumber": 19,
    "ChainId": 1604,
    "ChainName": "El Rancho Supermercado",
    "Label": "El Rancho Supermercado",
    "Address": "2550 Gus Thomasson Rd",
    "Address2": "",
    "City": "Dallas",
    "PostalCode": 75228,
    "State": "TX",
    "Latitude": 32.833721,
    "Longitude": -96.672419
  },
  {
    "unique_id": "1604-d8a001c80b9364e45f9059982330d468-0baa6f6e91f2a6e6369e2f1abc209533",
    "store_id": "",
    "StoreName": "",
    "StoreNumber": 15,
    "ChainId": 1604,
    "ChainName": "El Rancho Supermercado",
    "Label": "El Rancho Supermercado",
    "Address": "10020 Marsh Lane",
    "Address2": "",
    "City": "Dallas",
    "PostalCode": 75254,
    "State": "TX",
    "Latitude": 32.881815,
    "Longitude": -96.854977
  },
  {
    "unique_id": "1604-c509cfef5ea40c29ff497115f664b70f-cbc7b4973e7a6a3f8477bcab08a31279",
    "store_id": "",
    "StoreName": "",
    "StoreNumber": 14,
    "ChainId": 1604,
    "ChainName": "El Rancho Supermercado",
    "Label": "El Rancho Supermercado",
    "Address": "14211 Coit Rd.",
    "Address2": "",
    "City": "Dallas",
    "PostalCode": 75254,
    "State": "TX",
    "Latitude": 32.9420046,
    "Longitude": -96.7708906
  },
  {
    "unique_id": "1604-9995adc2e03ee28e77a40d662deb0b5e-36fe7940adb60a466917d5804abd3ef6",
    "store_id": "",
    "StoreName": "",
    "StoreNumber": 10,
    "ChainId": 1604,
    "ChainName": "El Rancho Supermercado",
    "Label": "El Rancho Supermercado",
    "Address": "655 W. Illinois, #900",
    "Address2": "",
    "City": "Dallas",
    "PostalCode": 75224,
    "State": "TX",
    "Latitude": 32.721708,
    "Longitude": -96.835047
  },
  {
    "unique_id": "1604-36acf8ad8a0ea285ef9598dba9c724f3-b232cea93484b82e118ee445333731ea",
    "store_id": "",
    "StoreName": "",
    "StoreNumber": 8,
    "ChainId": 1604,
    "ChainName": "El Rancho Supermercado",
    "Label": "El Rancho Supermercado",
    "Address": "1515 S. Buckner Blvd # 301",
    "Address2": "",
    "City": "Dallas",
    "PostalCode": 75217,
    "State": "TX",
    "Latitude": 32.7382225,
    "Longitude": -96.6840277
  },
  {
    "unique_id": "1604-9d4eae9a1a56895f592daf43329e2446-4fe0242f4d0016db34eeb7fa6d8468b3",
    "store_id": "",
    "StoreName": "",
    "StoreNumber": 25,
    "ChainId": 1604,
    "ChainName": "El Rancho Supermercado",
    "Label": "El Rancho Supermercado",
    "Address": "4121 Gaston Ave.",
    "Address2": "",
    "City": "Dallas",
    "PostalCode": 75246,
    "State": "TX",
    "Latitude": 32.795248,
    "Longitude": -96.77698
  },
  {
    "unique_id": "1604-38db31f1190e8c8d6940748215b445c4-f9312ded4f9928f4e9d77577edd28523",
    "store_id": "",
    "StoreName": "",
    "StoreNumber": 28,
    "ChainId": 1604,
    "ChainName": "El Rancho Supermercado",
    "Label": "El Rancho Supermercado",
    "Address": "2770 Valwood Pkwy",
    "Address2": "",
    "City": "Farmers Branch",
    "PostalCode": 75234,
    "State": "TX",
    "Latitude": 32.937405,
    "Longitude": -96.886646
  },
  {
    "unique_id": "1604-736350d14f9ef8214a666c08e32d63b5-4ea74aff25be3077ff7b4da75fdd158d",
    "store_id": "",
    "StoreName": "",
    "StoreNumber": 26,
    "ChainId": 1604,
    "ChainName": "El Rancho Supermercado",
    "Label": "El Rancho Supermercado",
    "Address": "1540 South First",
    "Address2": "",
    "City": "Garland",
    "PostalCode": 75040,
    "State": "TX",
    "Latitude": 32.8985466,
    "Longitude": -96.6298946
  },
  {
    "unique_id": "1605-7374e3909e661eee5dc67d4a57473a86-ddf4106f7b8d15e7e51d514945882f8f",
    "store_id": "",
    "StoreName": "El Rio Grande Latin Market #8",
    "StoreNumber": 8,
    "ChainId": 1605,
    "ChainName": "El Rio Grande",
    "Label": "El Rio Grande",
    "Address": "10909 Webb Chapel Rd.",
    "Address2": "",
    "City": "Dallas",
    "PostalCode": 75229,
    "State": "TX",
    "Latitude": 32.8966649,
    "Longitude": -96.8719354
  },
  {
    "unique_id": "1772-865519a64c2b25c23bf96c1acd492e28-682c2b6cac6aee21cfb398c2bd360f85",
    "store_id": "",
    "StoreName": "Store #71",
    "StoreNumber": 71,
    "ChainId": 1772,
    "ChainName": "Fiesta Mart",
    "Label": "Fiesta Mart",
    "Address": "3434 W Illinois",
    "Address2": "",
    "City": "Dallas",
    "PostalCode": 75211,
    "State": "TX",
    "Latitude": 32.7188721,
    "Longitude": -96.8773485
  },
  {
    "unique_id": "1772-03f8c44c013fcef9bfcc157ec4f57cec-9b18e5a7fda5357f4e6dd8e6a5c23829",
    "store_id": "",
    "StoreName": "Store #77",
    "StoreNumber": 77,
    "ChainId": 1772,
    "ChainName": "Fiesta Mart",
    "Label": "Fiesta Mart",
    "Address": "3460 Webb Chapel",
    "Address2": "",
    "City": "Dallas",
    "PostalCode": 75220,
    "State": "TX",
    "Latitude": 32.8641849,
    "Longitude": -96.8636501
  },
  {
    "unique_id": "1772-100b8344d5ececfba53fe5cd19dc07b4-81f7a4d5245cbaf37211153cee5b8886",
    "store_id": "",
    "StoreName": "Store #46",
    "StoreNumber": 46,
    "ChainId": 1772,
    "ChainName": "Fiesta Mart",
    "Label": "Fiesta Mart",
    "Address": "275 NE 28th Street",
    "Address2": "",
    "City": "Fort Worth",
    "PostalCode": 76106,
    "State": "TX",
    "Latitude": 32.7958342,
    "Longitude": -97.3460124
  },
  {
    "unique_id": "1772-b373a186610cee815e69de8c63c09bdd-e581274f0469b9106add296f9f99b998",
    "store_id": "",
    "StoreName": "Store #69",
    "StoreNumber": 69,
    "ChainId": 1772,
    "ChainName": "Fiesta Mart",
    "Label": "Fiesta Mart",
    "Address": "7809 Camp Bowie W",
    "Address2": "",
    "City": "Fort Worth",
    "PostalCode": 76116,
    "State": "TX",
    "Latitude": 32.722159,
    "Longitude": -97.4502572
  },
  {
    "unique_id": "1772-1a5d9fef39e84f73824a814a6931d98f-7c1048d769cc01f7ab852bab61b52a19",
    "store_id": "",
    "StoreName": "Store #210",
    "StoreNumber": 210,
    "ChainId": 1772,
    "ChainName": "Fiesta Mart",
    "Label": "Fiesta Mart",
    "Address": "10121 E. Lake June Rd.",
    "Address2": "",
    "City": "Dallas",
    "PostalCode": 75217,
    "State": "TX",
    "Latitude": 32.7354332,
    "Longitude": -96.6501987
  },
  {
    "unique_id": "1772-58909b935048f5ae3fa3e16ba0bd2806-9b341e276c7ff9a79cb5f1d68c3e548a",
    "store_id": "",
    "StoreName": "Store #212",
    "StoreNumber": 212,
    "ChainId": 1772,
    "ChainName": "Fiesta Mart",
    "Label": "Fiesta Mart",
    "Address": "3230 MLK Jr. Blvd.",
    "Address2": "",
    "City": "Dallas",
    "PostalCode": 75210,
    "State": "TX",
    "Latitude": 32.7729764,
    "Longitude": -96.7621564
  },
  {
    "unique_id": "1772-231942b79fb4ebdf000f01312fd89121-43ef6a3e30b0d5f2d84cc4999ca8066c",
    "store_id": "",
    "StoreName": "Store #207",
    "StoreNumber": 207,
    "ChainId": 1772,
    "ChainName": "Fiesta Mart",
    "Label": "Fiesta Mart",
    "Address": "8040 Ferguson Rd.",
    "Address2": "",
    "City": "Dallas",
    "PostalCode": 75228,
    "State": "TX",
    "Latitude": 32.8018582,
    "Longitude": -96.7122038
  },
  {
    "unique_id": "1772-6ee1c01a7975d1c18d09b64f8ef52020-a462e490c9d22cb17d8d1a3cd2119a66",
    "store_id": "",
    "StoreName": "Store #211",
    "StoreNumber": 211,
    "ChainId": 1772,
    "ChainName": "Fiesta Mart",
    "Label": "Fiesta Mart",
    "Address": "4202 Pioneer Rd.",
    "Address2": "",
    "City": "Balch Springs",
    "PostalCode": 75180,
    "State": "TX",
    "Latitude": 32.7128218,
    "Longitude": -96.6045114
  },
  {
    "unique_id": "1772-96ee187befb83fafdf04a858f9044bd2-02659bbc70bb71588d7289cb59e23d58",
    "store_id": "",
    "StoreName": "Store #213",
    "StoreNumber": 213,
    "ChainId": 1772,
    "ChainName": "Fiesta Mart",
    "Label": "Fiesta Mart",
    "Address": "1450 West Pleasant Run Rd.",
    "Address2": "",
    "City": "Lancaster",
    "PostalCode": 75146,
    "State": "TX",
    "Latitude": 32.6030495,
    "Longitude": -96.7864879
  },
  {
    "unique_id": "1898-26a9cf80874d5fbc8c139a958b73cc6b-3b3fe1839f0b8dc7ab92e7efff29084c",
    "store_id": "",
    "StoreName": "Fred Meyer Jewelers",
    "StoreNumber": 106,
    "ChainId": 1898,
    "ChainName": "Fred Meyer Jewelers",
    "Label": "Fred Meyer Jewelers",
    "Address": "500 Marketplace Blvd.",
    "Address2": "",
    "City": "Forney",
    "PostalCode": 75126,
    "State": "TX",
    "Latitude": 32.7489045,
    "Longitude": -96.450152
  },
  {
    "unique_id": "1898-072d49b3225e0f4b800f8b317843c732-24159a26bbfeb0d3f374a3257c148354",
    "store_id": "",
    "StoreName": "Fred Meyer Jewelers",
    "StoreNumber": 108,
    "ChainId": 1898,
    "ChainName": "Fred Meyer Jewelers",
    "Label": "Fred Meyer Jewelers",
    "Address": "2608 West Fm 544",
    "Address2": "",
    "City": "Wylie",
    "PostalCode": 75098,
    "State": "TX",
    "Latitude": 33.0084149,
    "Longitude": -96.5748354
  },
  {
    "unique_id": "1898-215766b579736f293801e7b68ce55341-ad20dccf495d2cda7ce69b5d3103ae0d",
    "store_id": "",
    "StoreName": "Fred Meyer Jewelers",
    "StoreNumber": 58,
    "ChainId": 1898,
    "ChainName": "Fred Meyer Jewelers",
    "Label": "Fred Meyer Jewelers",
    "Address": "12221 Custer Rd",
    "Address2": "",
    "City": "Frisco",
    "PostalCode": 75035,
    "State": "TX",
    "Latitude": 33.1772342,
    "Longitude": -96.7352666
  },
  {
    "unique_id": "1898-22d3c91ce0df15697506e3167891e778-53d015303d3e8d8d024f54f30be73a91",
    "store_id": "",
    "StoreName": "Fred Meyer Jewelers",
    "StoreNumber": 83,
    "ChainId": 1898,
    "ChainName": "Fred Meyer Jewelers",
    "Label": "Fred Meyer Jewelers",
    "Address": "2671 Little Elm Pkwy",
    "Address2": "",
    "City": "Little Elm",
    "PostalCode": 75068,
    "State": "TX",
    "Latitude": 33.1702103,
    "Longitude": -96.8916947
  },
  {
    "unique_id": "1898-3dcf0cbc39745e54fc04fbe29063efc8-520e01171271a1394c987fda514e0035",
    "store_id": "",
    "StoreName": "Fred Meyer Jewelers",
    "StoreNumber": 199,
    "ChainId": 1898,
    "ChainName": "Fred Meyer Jewelers",
    "Label": "Fred Meyer Jewelers",
    "Address": "4620 SH 121",
    "Address2": "",
    "City": "Lewisville",
    "PostalCode": 75056,
    "State": "TX",
    "Latitude": 33.062215,
    "Longitude": -96.8890911
  },
  {
    "unique_id": "1898-c99b91e7c6b5d58cb1d0599574e50b88-1d7926cce882090ec7cf9758dddf2a86",
    "store_id": "",
    "StoreName": "Fred Meyer Jewelers",
    "StoreNumber": 197,
    "ChainId": 1898,
    "ChainName": "Fred Meyer Jewelers",
    "Label": "Fred Meyer Jewelers",
    "Address": "3400 FM-407 E.",
    "Address2": "",
    "City": "Bartonville",
    "PostalCode": 76226,
    "State": "TX",
    "Latitude": 33.0751032,
    "Longitude": -97.1304829
  },
  {
    "unique_id": "1898-0ce74a96107a534575ea1d06ad996854-659e25bc955dce43895ff6058c244989",
    "store_id": "",
    "StoreName": "Fred Meyer Jewelers",
    "StoreNumber": 82,
    "ChainId": 1898,
    "ChainName": "Fred Meyer Jewelers",
    "Label": "Fred Meyer Jewelers",
    "Address": "3300 E Broad St",
    "Address2": "",
    "City": "Mansfield",
    "PostalCode": 76063,
    "State": "TX",
    "Latitude": 32.5736515,
    "Longitude": -97.083081
  },
  {
    "unique_id": "1898-d059809bdee6e9618e639a55edef2f8e-7b00a8ed581345d555d0f0a9afbff08a",
    "store_id": "",
    "StoreName": "Fred Meyer Jewelers",
    "StoreNumber": 213,
    "ChainId": 1898,
    "ChainName": "Fred Meyer Jewelers",
    "Label": "Fred Meyer Jewelers",
    "Address": "3915 E US Highway 377",
    "Address2": "",
    "City": "Granbury",
    "PostalCode": 76049,
    "State": "TX",
    "Latitude": 32.4538779,
    "Longitude": -97.7273796
  },
  {
    "unique_id": "1898-a00ae7da41423ed6a8a5d91704321dc8-42e84fe260d311aae2a9ce5fb9ab789f",
    "store_id": "",
    "StoreName": "Fred Meyer Jewelers",
    "StoreNumber": 194,
    "ChainId": 1898,
    "ChainName": "Fred Meyer Jewelers",
    "Label": "Fred Meyer Jewelers",
    "Address": "9150 N. Tarrant Parkway",
    "Address2": "",
    "City": "North Richland Hills",
    "PostalCode": 76182,
    "State": "TX",
    "Latitude": 32.902079,
    "Longitude": -97.1889916
  },
  {
    "unique_id": "1898-60f062ad699bd8eed942ca3ac7644490-5fb141b8e645cbc240b5f42ae7c67874",
    "store_id": "",
    "StoreName": "Fred Meyer Jewelers",
    "StoreNumber": 54,
    "ChainId": 1898,
    "ChainName": "Fred Meyer Jewelers",
    "Label": "Fred Meyer Jewelers",
    "Address": "3300 Texas Sage Trail",
    "Address2": "",
    "City": "Fort Worth",
    "PostalCode": 76177,
    "State": "TX",
    "Latitude": 32.9115351,
    "Longitude": -97.3092756
  },
  {
    "unique_id": "5447-c69d3d0edc24ea79e2c955be210e73f2-2e75c1f33a52bd4f60a3d1a53427b892",
    "store_id": "",
    "StoreName": "",
    "StoreNumber": "",
    "ChainId": 5447,
    "ChainName": "Fred's",
    "Label": "Fred's",
    "Address": "801 TURKEY CREEK TRAIL",
    "Address2": "",
    "City": "Bridgeport",
    "PostalCode": 76426,
    "State": "TX",
    "Latitude": 33.2154143,
    "Longitude": -97.7592795
  },
  {
    "unique_id": "2148-0307a52c34cbb109170793bdc85928d3-0a0294b557024e805bafd8d40806c64c",
    "store_id": "",
    "StoreName": "Carrollton",
    "StoreNumber": "",
    "ChainId": 2148,
    "ChainName": "H Mart",
    "Label": "H Mart",
    "Address": "2625 Old Denton Rd. #200",
    "Address2": "",
    "City": "Carrollton",
    "PostalCode": 75007,
    "State": "TX",
    "Latitude": 32.9849475,
    "Longitude": -96.9125005
  },
  {
    "unique_id": "2152-496c012d846d115a036c3dcbd3260160-a78b2363ef3c05d441c77699d765356b",
    "store_id": "",
    "StoreName": "Ennis H-E-B",
    "StoreNumber": 107,
    "ChainId": 2152,
    "ChainName": "H-E-B",
    "Label": "H-E-B Grocery",
    "Address": "101 S. CLAY ST",
    "Address2": "",
    "City": "ENNIS",
    "PostalCode": "75119-4519",
    "State": "TX",
    "Latitude": 32.323953,
    "Longitude": -96.634007
  },
  {
    "unique_id": "2152-988940d0e9717c75dbd5c7e00ea7ed6b-8c064c2f54aada7b7134c6992765b29d",
    "store_id": "",
    "StoreName": "Waxahachie H-E-B",
    "StoreNumber": 426,
    "ChainId": 2152,
    "ChainName": "H-E-B",
    "Label": "H-E-B Grocery",
    "Address": "800 HWY 77",
    "Address2": "",
    "City": "WAXAHACHIE",
    "PostalCode": "75165-1884",
    "State": "TX",
    "Latitude": 32.411814,
    "Longitude": -96.839792
  },
  {
    "unique_id": "2152-15a9be6e65c4716e465d308899ae4319-f558e94d12f0e7f553ef9e1f391eda03",
    "store_id": "",
    "StoreName": "Burleson H-E-B Plus!",
    "StoreNumber": 16,
    "ChainId": 2152,
    "ChainName": "H-E-B",
    "Label": "H-E-B Grocery",
    "Address": "165 N.W.JOHN JONES DR.",
    "Address2": "",
    "City": "BURLESON",
    "PostalCode": "76028-5154",
    "State": "TX",
    "Latitude": 32.5205323,
    "Longitude": -97.3521634
  },
  {
    "unique_id": "2152-4b0aa2fd6618bf8aa305da9b41597a5b-79a23bc5009f3cc168da9819a66c4004",
    "store_id": "",
    "StoreName": "Granbury H-E-B",
    "StoreNumber": 631,
    "ChainId": 2152,
    "ChainName": "H-E-B",
    "Label": "H-E-B Grocery",
    "Address": "3804 US HWY 377",
    "Address2": "",
    "City": "GRANBURY",
    "PostalCode": "76049-7428",
    "State": "TX",
    "Latitude": 32.45765,
    "Longitude": -97.729731
  },
  {
    "unique_id": "2152-1194b1946969fe9c65f41ed17aa91278-5cc3944b83f8c7db2f760947696dc005",
    "store_id": "",
    "StoreName": "Cleburne H-E-B",
    "StoreNumber": 679,
    "ChainId": 2152,
    "ChainName": "H-E-B",
    "Label": "H-E-B Grocery",
    "Address": "600 W HENDERSON",
    "Address2": "",
    "City": "CLEBURNE",
    "PostalCode": "76033-4830",
    "State": "TX",
    "Latitude": 32.34744,
    "Longitude": -97.394135
  },
  {
    "unique_id": "2312-15a6a7c3d14e460cfc4ccd1659ef49f9-143314985ef1ca653ea871fb1dec7401",
    "store_id": "",
    "StoreName": "",
    "StoreNumber": "",
    "ChainId": 2312,
    "ChainName": "Homeland",
    "Label": "Homeland",
    "Address": "904 West 1St Street",
    "Address2": "",
    "City": "Justin",
    "PostalCode": 76247,
    "State": "TX",
    "Latitude": 33.0861251,
    "Longitude": -97.3061798
  },
  {
    "unique_id": "2372-b5e74ae68a6d849dce633bfb080b988a-da845d8e200d7c5da66e370446f1d104",
    "store_id": "",
    "StoreName": "Lake Worth Cash Saver IGA",
    "StoreNumber": "",
    "ChainId": 2372,
    "ChainName": "IGA (Independent Grocers Alliance)",
    "Label": "IGA",
    "Address": "3905 Telephone Road",
    "Address2": "",
    "City": "Lake Worth",
    "PostalCode": 76135,
    "State": "TX",
    "Latitude": 32.8138356,
    "Longitude": -97.4340359
  },
  {
    "unique_id": "2372-17bbe9ba6ba2f0f34ad0bddc364c2874-621ce4baaf12568b65db70a668698d77",
    "store_id": "",
    "StoreName": "Diamond Food Market IGA",
    "StoreNumber": "",
    "ChainId": 2372,
    "ChainName": "IGA (Independent Grocers Alliance)",
    "Label": "IGA",
    "Address": "911 South Highway 377",
    "Address2": "",
    "City": "Aubrey",
    "PostalCode": 76227,
    "State": "TX",
    "Latitude": 33.29379,
    "Longitude": -96.984205
  },
  {
    "unique_id": "2694-85532262f2e2126c41b00c42642cec42-ff61ba7ef4bec34b65d9ae5029907639",
    "store_id": "",
    "StoreName": "Granbury",
    "StoreNumber": 917,
    "ChainId": 2694,
    "ChainName": "Kroger",
    "Label": "Kroger",
    "Address": "3915 Hwy. 377 East",
    "Address2": "",
    "City": "Granbury",
    "PostalCode": 76049,
    "State": "TX",
    "Latitude": 32.4537209,
    "Longitude": -97.7266925
  },
  {
    "unique_id": "2694-60f062ad699bd8eed942ca3ac7644490-93a91878b799849524805294151335b5",
    "store_id": "",
    "StoreName": "Alliance",
    "StoreNumber": 542,
    "ChainId": 2694,
    "ChainName": "Kroger",
    "Label": "Kroger",
    "Address": "3300 Texas Sage Trail",
    "Address2": "",
    "City": "Fort Worth",
    "PostalCode": 76177,
    "State": "TX",
    "Latitude": 32.9116847,
    "Longitude": -97.3092477
  },
  {
    "unique_id": "2694-a00ae7da41423ed6a8a5d91704321dc8-ff141765d74c627ff9664b89ffb66cdf",
    "store_id": "",
    "StoreName": "Kroger Marketplace",
    "StoreNumber": 535,
    "ChainId": 2694,
    "ChainName": "Kroger",
    "Label": "Kroger",
    "Address": "9150 N. Tarrant Parkway",
    "Address2": "",
    "City": "North Richland Hills",
    "PostalCode": 76182,
    "State": "TX",
    "Latitude": 32.9019612,
    "Longitude": -97.1888834
  },
  {
    "unique_id": "2694-bd3eaae141e220388b6ff1eef3858aae-92003e4abdc6d50a4fd4b7171a86dc44",
    "store_id": "",
    "StoreName": "Bailey Boswell",
    "StoreNumber": 576,
    "ChainId": 2694,
    "ChainName": "Kroger",
    "Label": "Kroger",
    "Address": "4750 W. Bailey Boswell Rd.",
    "Address2": "",
    "City": "Fort Worth",
    "PostalCode": 76179,
    "State": "TX",
    "Latitude": 32.882677,
    "Longitude": -97.3953809
  },
  {
    "unique_id": "2694-fa1798d78bfd03eb8ad7808359c910ef-b9e4a0225ad1ff9ff0f3c7515b20dc29",
    "store_id": "",
    "StoreName": "Arlington Marketplace",
    "StoreNumber": 592,
    "ChainId": 2694,
    "ChainName": "Kroger",
    "Label": "Kroger",
    "Address": "5101 W. Sublett Rd.",
    "Address2": "",
    "City": "Arlington",
    "PostalCode": 76017,
    "State": "TX",
    "Latitude": 32.6475688,
    "Longitude": -97.1881814
  },
  {
    "unique_id": "2694-60bcdf7afc84dda18368d4c6dee63067-26260739a3e29537efd7a04c96f5455d",
    "store_id": "",
    "StoreName": "Burleson",
    "StoreNumber": 591,
    "ChainId": 2694,
    "ChainName": "Kroger",
    "Label": "Kroger",
    "Address": "1631 SW Wilshire Blvd.",
    "Address2": "",
    "City": "Burleson",
    "PostalCode": 76028,
    "State": "TX",
    "Latitude": 32.5164664,
    "Longitude": -97.3490113
  },
  {
    "unique_id": "2694-c99b91e7c6b5d58cb1d0599574e50b88-4f3216c0536277c7eb41a0a60c479760",
    "store_id": "",
    "StoreName": "Bartonville",
    "StoreNumber": 572,
    "ChainId": 2694,
    "ChainName": "Kroger",
    "Label": "Kroger",
    "Address": "3400 FM 407 E.",
    "Address2": "",
    "City": "Bartonville",
    "PostalCode": 76226,
    "State": "TX",
    "Latitude": 33.0747469,
    "Longitude": -97.1302879
  },
  {
    "unique_id": "2694-27d56abb002528ef499a45b614364bf2-eee9322d0c730f4c8f7caa9b90456f0c",
    "store_id": "",
    "StoreName": "Midlothian Towne Center",
    "StoreNumber": 596,
    "ChainId": 2694,
    "ChainName": "Kroger",
    "Label": "Kroger",
    "Address": "2200 FM 663",
    "Address2": "",
    "City": "Midlothian",
    "PostalCode": 76065,
    "State": "TX",
    "Latitude": 32.4604594,
    "Longitude": -96.9945945
  },
  {
    "unique_id": "2694-0ce74a96107a534575ea1d06ad996854-14059fe44ba5be40691f0c5ad10df3d9",
    "store_id": "",
    "StoreName": "Broad Street",
    "StoreNumber": 594,
    "ChainId": 2694,
    "ChainName": "Kroger",
    "Label": "Kroger",
    "Address": "3300 E Broad St",
    "Address2": "",
    "City": "Mansfield",
    "PostalCode": 76063,
    "State": "TX",
    "Latitude": 32.5737193,
    "Longitude": -97.0834297
  },
  {
    "unique_id": "2694-22d3c91ce0df15697506e3167891e778-34ab6c30d11cc5948f06d8606488b3db",
    "store_id": "",
    "StoreName": "Little Elm",
    "StoreNumber": 580,
    "ChainId": 2694,
    "ChainName": "Kroger",
    "Label": "Kroger",
    "Address": "2671 Little Elm Pkwy",
    "Address2": "",
    "City": "Little Elm",
    "PostalCode": 75068,
    "State": "TX",
    "Latitude": 33.1704848,
    "Longitude": -96.8913809
  },
  {
    "unique_id": "2694-3dcf0cbc39745e54fc04fbe29063efc8-3ebf3cd902ee7c309f48857038b22548",
    "store_id": "",
    "StoreName": "Castle Hills",
    "StoreNumber": 599,
    "ChainId": 2694,
    "ChainName": "Kroger",
    "Label": "Kroger",
    "Address": "4620 SH 121",
    "Address2": "",
    "City": "Lewisville",
    "PostalCode": 75056,
    "State": "TX",
    "Latitude": 33.0621895,
    "Longitude": -96.8890554
  },
  {
    "unique_id": "2694-7393eda3cc97bdc02faa467022cc670c-21151b2e684702e31be4942f2ed2488d",
    "store_id": "",
    "StoreName": "Balch Springs",
    "StoreNumber": 492,
    "ChainId": 2694,
    "ChainName": "Kroger",
    "Label": "Kroger",
    "Address": "11925 Elam Rd",
    "Address2": "",
    "City": "Balch Springs",
    "PostalCode": 75180,
    "State": "TX",
    "Latitude": 32.720315,
    "Longitude": -96.6207889
  },
  {
    "unique_id": "2694-db1a6dc7d1554788b33a8cd744885e3b-66f425232a96ca86cc988a142d7f5d49",
    "store_id": "",
    "StoreName": "Desoto Crossing",
    "StoreNumber": 545,
    "ChainId": 2694,
    "ChainName": "Kroger",
    "Label": "Kroger",
    "Address": "1001 North Beckley Ave. #500",
    "Address2": "",
    "City": "Desoto",
    "PostalCode": 75115,
    "State": "TX",
    "Latitude": 32.6071036,
    "Longitude": -96.82547
  },
  {
    "unique_id": "2694-215766b579736f293801e7b68ce55341-01d163eccdecd3d9056d83b33d1bfe2c",
    "store_id": "",
    "StoreName": "Custer Star",
    "StoreNumber": 561,
    "ChainId": 2694,
    "ChainName": "Kroger",
    "Label": "Kroger",
    "Address": "12221 Custer Rd",
    "Address2": "",
    "City": "Frisco",
    "PostalCode": 75035,
    "State": "TX",
    "Latitude": 33.1771942,
    "Longitude": -96.7353854
  },
  {
    "unique_id": "2694-6d5f088ffae9807d7aa77ff558665797-3c25260675a63e5248f87750a6195c3b",
    "store_id": "",
    "StoreName": "Windsong Ranch Marketplace",
    "StoreNumber": 589,
    "ChainId": 2694,
    "ChainName": "Kroger",
    "Label": "Kroger",
    "Address": "4650 West University Drive",
    "Address2": "",
    "City": "Prosper",
    "PostalCode": 75078,
    "State": "TX",
    "Latitude": 33.2208606,
    "Longitude": -96.87767
  },
  {
    "unique_id": "2694-7a9b89a44effca24a51f0b8a8df008dc-8038dcfdfdf08f5ccd0c3069f7584541",
    "store_id": "",
    "StoreName": "Wylie",
    "StoreNumber": 578,
    "ChainId": 2694,
    "ChainName": "Kroger",
    "Label": "Kroger",
    "Address": "2608 W. FM 544",
    "Address2": "",
    "City": "Wylie",
    "PostalCode": 75098,
    "State": "TX",
    "Latitude": 33.008497,
    "Longitude": -96.5751779
  },
  {
    "unique_id": "2694-601c243ba5cf40d7ca1cf8fdccfed313-afc253a1c70562aa29438624681b5394",
    "store_id": "",
    "StoreName": "Forney Marketplace",
    "StoreNumber": 579,
    "ChainId": 2694,
    "ChainName": "Kroger",
    "Label": "Kroger",
    "Address": "500 Marketplace Boulevard",
    "Address2": "",
    "City": "Forney",
    "PostalCode": 75126,
    "State": "TX",
    "Latitude": 32.7487523,
    "Longitude": -96.4501547
  },
  {
    "unique_id": "6597-52008b13f5733a1548be030431a16f54-c0e1838adc3b3f0d4cbb36e7b274f0e2",
    "store_id": "",
    "StoreName": "Kroger Specialty Pharmacy - Addison",
    "StoreNumber": 8,
    "ChainId": 6597,
    "ChainName": "Kroger Specialty Pharmacy",
    "Label": "Kroger Specialty Pharmacy",
    "Address": "4830 Kellway Circle",
    "Address2": "",
    "City": "Addison",
    "PostalCode": 75001,
    "State": "TX",
    "Latitude": 32.97081726,
    "Longitude": -96.84131501
  },
  {
    "unique_id": "6597-c7dd1b03cd09887ae986a55da4934719-0d2a414a35af5a0da23835973ab20e44",
    "store_id": "",
    "StoreName": "Kroger Specialty Pharmacy Richardson",
    "StoreNumber": 7,
    "ChainId": 6597,
    "ChainName": "Kroger Specialty Pharmacy",
    "Label": "Kroger Specialty Pharmacy",
    "Address": "1748 N. Greenville Ave.",
    "Address2": "",
    "City": "Richardson",
    "PostalCode": 75081,
    "State": "TX",
    "Latitude": 32.9711417,
    "Longitude": -96.7151167
  },
  {
    "unique_id": "2750-3453fc6ee43d7bb45dac36c98374a8c5-caf1427b4c6d458c74fb021f1f0e6762",
    "store_id": "",
    "StoreName": "Spring Valley Rd",
    "StoreNumber": 159,
    "ChainId": 2750,
    "ChainName": "La Michoacana Meat Market",
    "Label": "La Michoacana Meat Market",
    "Address": "8702 Spring Valley Rd.",
    "Address2": "",
    "City": "Ste C",
    "PostalCode": 75240,
    "State": "TX",
    "Latitude": 32.9396178,
    "Longitude": -96.7524396
  },
  {
    "unique_id": "2750-99e11618170e87a3d794d6e74a8fb1af-ee2a307e35ee4ee3f1bfd009b44543af",
    "store_id": "",
    "StoreName": "Plano",
    "StoreNumber": 144,
    "ChainId": 2750,
    "ChainName": "La Michoacana Meat Market",
    "Label": "La Michoacana Meat Market",
    "Address": "1409 Jupiter, Ste 102",
    "Address2": "",
    "City": "Plano",
    "PostalCode": 75074,
    "State": "TX",
    "Latitude": 33.019563,
    "Longitude": -96.6844717
  },
  {
    "unique_id": "2750-a437b16c27293198840892081c60404a-247752df16856b5617a7503af771d466",
    "store_id": "",
    "StoreName": "Carrollton",
    "StoreNumber": 141,
    "ChainId": 2750,
    "ChainName": "La Michoacana Meat Market",
    "Label": "La Michoacana Meat Market",
    "Address": "2004 E Belt Line Rd",
    "Address2": "",
    "City": "Carrollton",
    "PostalCode": 75006,
    "State": "TX",
    "Latitude": 32.953086,
    "Longitude": -96.886125
  },
  {
    "unique_id": "2750-7f9e8d41a7adaeb504b96fe3525365f3-4dac765f7023312b95c11fece9611f51",
    "store_id": "",
    "StoreName": "Irving â€“ Beltline & Northgate",
    "StoreNumber": 143,
    "ChainId": 2750,
    "ChainName": "La Michoacana Meat Market",
    "Label": "La Michoacana Meat Market",
    "Address": "3500 N. Beltline Rd., Ste 110",
    "Address2": "",
    "City": "Irving",
    "PostalCode": 75062,
    "State": "TX",
    "Latitude": 32.8540177,
    "Longitude": -96.9913727
  },
  {
    "unique_id": "2750-43e1e5afbb0127c05bf2c7a9e6f7656e-484c1973c0b2c4f40d0a9313aaa0441d",
    "store_id": "",
    "StoreName": "Greenville Rd",
    "StoreNumber": 107,
    "ChainId": 2750,
    "ChainName": "La Michoacana Meat Market",
    "Label": "La Michoacana Meat Market",
    "Address": "6770 Greenville Rd",
    "Address2": "",
    "City": "Dallas",
    "PostalCode": 75231,
    "State": "TX",
    "Latitude": 32.8677852,
    "Longitude": -96.7664809
  },
  {
    "unique_id": "2750-482892b41e1ea9ded3d935b9a578237b-fc3c3a018809eb2684af6e59e4142e5a",
    "store_id": "",
    "StoreName": "Walnut Hill & Audelia",
    "StoreNumber": 140,
    "ChainId": 2750,
    "ChainName": "La Michoacana Meat Market",
    "Label": "La Michoacana Meat Market",
    "Address": "9850 Walnut Hill Ln, Ste 224",
    "Address2": "",
    "City": "Dallas",
    "PostalCode": 75238,
    "State": "TX",
    "Latitude": 32.8784026,
    "Longitude": -96.7160329
  },
  {
    "unique_id": "2750-592ff419c5c25b99951362c241c2fb08-5f2471c9613efa1e221730b6ab155869",
    "store_id": "",
    "StoreName": "W Jefferson",
    "StoreNumber": 124,
    "ChainId": 2750,
    "ChainName": "La Michoacana Meat Market",
    "Label": "La Michoacana Meat Market",
    "Address": "800 W Jefferson",
    "Address2": "",
    "City": "Dallas",
    "PostalCode": 75208,
    "State": "TX",
    "Latitude": 32.7428668,
    "Longitude": -96.8363563
  },
  {
    "unique_id": "2750-d06340f84b54492822385011af245556-1a2205233fb48adefc78d75cc9201502",
    "store_id": "",
    "StoreName": "Mesquite â€“ Galloway & 80",
    "StoreNumber": 134,
    "ChainId": 2750,
    "ChainName": "La Michoacana Meat Market",
    "Label": "La Michoacana Meat Market",
    "Address": "2002 N. Galloway Ste D",
    "Address2": "",
    "City": "Mesquite",
    "PostalCode": 75149,
    "State": "TX",
    "Latitude": 32.7911573,
    "Longitude": -96.6103281
  },
  {
    "unique_id": "2750-c38f1c6eb375e88a9f6b12d11cdc43f6-e5a1099b5cfafba69c46786b58b90e44",
    "store_id": "",
    "StoreName": "Buckner Blvd",
    "StoreNumber": 119,
    "ChainId": 2750,
    "ChainName": "La Michoacana Meat Market",
    "Label": "La Michoacana Meat Market",
    "Address": "1506 S Buckner",
    "Address2": "",
    "City": "Dallas",
    "PostalCode": 75217,
    "State": "TX",
    "Latitude": 32.7380573,
    "Longitude": -96.6824755
  },
  {
    "unique_id": "2750-cc15f0580e4b4381eab8668820b7436b-1a2205233fb48adefc78d75cc9201502",
    "store_id": "",
    "StoreName": "Mesquite â€“ 635 & Lake June",
    "StoreNumber": 133,
    "ChainId": 2750,
    "ChainName": "La Michoacana Meat Market",
    "Label": "La Michoacana Meat Market",
    "Address": "24315 Lbj Freeway 635",
    "Address2": "",
    "City": "Mesquite",
    "PostalCode": 75180,
    "State": "TX",
    "Latitude": 32.7354264,
    "Longitude": -96.6132786
  },
  {
    "unique_id": "2750-08a3bd6eb0beb53a7f5b09cbc6d05b0b-8fa3526f9fc7388bf8ab01d9ea39238c",
    "store_id": "",
    "StoreName": "S.W. Main St",
    "StoreNumber": 116,
    "ChainId": 2750,
    "ChainName": "La Michoacana Meat Market",
    "Label": "La Michoacana Meat Market",
    "Address": "401 S.W. Main St",
    "Address2": "",
    "City": "Ennis",
    "PostalCode": 75119,
    "State": "TX",
    "Latitude": 32.3251656,
    "Longitude": -96.6256799
  },
  {
    "unique_id": "2750-faf590f2a245fcb924e52f64d35b9675-249244d4439b22d6f7092c1f43a69b8f",
    "store_id": "",
    "StoreName": "Denton",
    "StoreNumber": 97,
    "ChainId": 2750,
    "ChainName": "La Michoacana Meat Market",
    "Label": "La Michoacana Meat Market",
    "Address": "2006 W University Dr",
    "Address2": "",
    "City": "Denton",
    "PostalCode": 76201,
    "State": "TX",
    "Latitude": 33.2300664,
    "Longitude": -97.155164
  },
  {
    "unique_id": "2750-1c833cfc2b919f40431ee4ae742263c1-f67392c49f02310a7420426b07452cff",
    "store_id": "",
    "StoreName": "Mckinney",
    "StoreNumber": 130,
    "ChainId": 2750,
    "ChainName": "La Michoacana Meat Market",
    "Label": "La Michoacana Meat Market",
    "Address": "311 W University Dr",
    "Address2": "",
    "City": "Mckinney",
    "PostalCode": 75069,
    "State": "TX",
    "Latitude": 33.214514,
    "Longitude": -96.619323
  },
  {
    "unique_id": "2750-b68ffec39dce8d5771510451f0b223aa-6d0194b0c7d882634be39ff0d4722850",
    "store_id": "",
    "StoreName": "River Oaks Blvd",
    "StoreNumber": 155,
    "ChainId": 2750,
    "ChainName": "La Michoacana Meat Market",
    "Label": "La Michoacana Meat Market",
    "Address": "4845 River Oaks Blvd",
    "Address2": "",
    "City": "River Oaks",
    "PostalCode": 76114,
    "State": "TX",
    "Latitude": 32.7778125,
    "Longitude": -97.3929179
  },
  {
    "unique_id": "2750-dc405ff1e9b10709bbde8c74606f21e5-4f4499e5610c0edc76905cf04c0a6641",
    "store_id": "",
    "StoreName": "Greenville",
    "StoreNumber": 149,
    "ChainId": 2750,
    "ChainName": "La Michoacana Meat Market",
    "Label": "La Michoacana Meat Market",
    "Address": "5106 Wesley St",
    "Address2": "",
    "City": "Greenville",
    "PostalCode": 75402,
    "State": "TX",
    "Latitude": 33.118775,
    "Longitude": -96.1097151
  },
  {
    "unique_id": "2750-1d9beb3361e56165df2f65b2959d4970-3dbacd552fd0d0d0747948fde6d48d8d",
    "store_id": "",
    "StoreName": "Spring Valley Rd & Maham Rd",
    "StoreNumber": 139,
    "ChainId": 2750,
    "ChainName": "La Michoacana Meat Market",
    "Label": "La Michoacana Meat Market",
    "Address": "8282 W Spring Valley Rd",
    "Address2": "",
    "City": "Dallas",
    "PostalCode": 75240,
    "State": "TX",
    "Latitude": 32.938926,
    "Longitude": -96.7619868
  },
  {
    "unique_id": "2750-c2710297d7c26485610738448aeb464d-108cd9ff9f0d4779bbec2d0af33f145c",
    "store_id": "",
    "StoreName": "Lombardy",
    "StoreNumber": 125,
    "ChainId": 2750,
    "ChainName": "La Michoacana Meat Market",
    "Label": "La Michoacana Meat Market",
    "Address": "3380 Lombardy Ln",
    "Address2": "",
    "City": "Dallas",
    "PostalCode": 75220,
    "State": "TX",
    "Latitude": 32.8660956,
    "Longitude": -96.8665516
  },
  {
    "unique_id": "2750-8da2dad259b75e7375fa2e879ac36222-f6c063ae6d5fec73435abe4a9c43c216",
    "store_id": "",
    "StoreName": "Walnut St & Shiloh Rd",
    "StoreNumber": 105,
    "ChainId": 2750,
    "ChainName": "La Michoacana Meat Market",
    "Label": "La Michoacana Meat Market",
    "Address": "2406 W Walnut St",
    "Address2": "",
    "City": "Garland",
    "PostalCode": 75042,
    "State": "TX",
    "Latitude": 32.9159886,
    "Longitude": -96.6642175
  },
  {
    "unique_id": "2750-220ba276b6f3af3eaa9019dd0b597edc-791c7aa91a020f3d2db5eb68003cd9aa",
    "store_id": "",
    "StoreName": "Irving - Grauwyler",
    "StoreNumber": 109,
    "ChainId": 2750,
    "ChainName": "La Michoacana Meat Market",
    "Label": "La Michoacana Meat Market",
    "Address": "824 E Grauwyler Rd",
    "Address2": "",
    "City": "Irving",
    "PostalCode": 75061,
    "State": "TX",
    "Latitude": 32.829268,
    "Longitude": -96.935754
  },
  {
    "unique_id": "2750-8e52fc188dda7d0bc9d5cbc2364878c8-81b6875bf69a9736463986a42083b0fe",
    "store_id": "",
    "StoreName": "Kingsley Rd & Garland Ave",
    "StoreNumber": 138,
    "ChainId": 2750,
    "ChainName": "La Michoacana Meat Market",
    "Label": "La Michoacana Meat Market",
    "Address": "2114 W Kingsley Rd",
    "Address2": "",
    "City": "Garland",
    "PostalCode": 75041,
    "State": "TX",
    "Latitude": 32.8779378,
    "Longitude": -96.6587188
  },
  {
    "unique_id": "2750-e6f5b6537c1b3d7287e888d591d802e5-bde25af2c16530a92b19eaff09522c67",
    "store_id": "",
    "StoreName": "Arlington - Abram St",
    "StoreNumber": 122,
    "ChainId": 2750,
    "ChainName": "La Michoacana Meat Market",
    "Label": "La Michoacana Meat Market",
    "Address": "1610 E Abram St",
    "Address2": "",
    "City": "Arlington",
    "PostalCode": 76010,
    "State": "TX",
    "Latitude": 32.7347077,
    "Longitude": -97.0856223
  },
  {
    "unique_id": "2750-63fa2479787f18564a4d3b3b60f5fe10-e1c9caa07c08eb09f8bb225487c18308",
    "store_id": "",
    "StoreName": "Arlington - Park Row",
    "StoreNumber": 7,
    "ChainId": 2750,
    "ChainName": "La Michoacana Meat Market",
    "Label": "La Michoacana Meat Market",
    "Address": "923 E Park Row Dr",
    "Address2": "",
    "City": "Arlington",
    "PostalCode": 76010,
    "State": "TX",
    "Latitude": 32.7218896,
    "Longitude": -97.0966324
  },
  {
    "unique_id": "2750-1bff0b73d23f821e68a73b901e42ed9f-3a67a5bb1aebfe0be881dfd7fad6ce80",
    "store_id": "",
    "StoreName": "Arlington - Park Row & 360",
    "StoreNumber": 126,
    "ChainId": 2750,
    "ChainName": "La Michoacana Meat Market",
    "Label": "La Michoacana Meat Market",
    "Address": "2524 E Park Row Dr",
    "Address2": "",
    "City": "Arlington",
    "PostalCode": 76010,
    "State": "TX",
    "Latitude": 32.7203227,
    "Longitude": -97.0635341
  },
  {
    "unique_id": "2750-0dde9b00d3dd12d13574024d7e66ca1a-52c167568f1de70215f530f0b3b88922",
    "store_id": "",
    "StoreName": "Grand Prairie â€“ Main",
    "StoreNumber": 163,
    "ChainId": 2750,
    "ChainName": "La Michoacana Meat Market",
    "Label": "La Michoacana Meat Market",
    "Address": "1630 E Main St",
    "Address2": "",
    "City": "Grand Prairie",
    "PostalCode": 75050,
    "State": "TX",
    "Latitude": 32.7483689,
    "Longitude": -96.9830665
  },
  {
    "unique_id": "2750-95488f6d6fea5ec080a034de7fed2cbd-ec74793e4e71d66ca9b3ee4343031a83",
    "store_id": "",
    "StoreName": "N Fitzhugh",
    "StoreNumber": 123,
    "ChainId": 2750,
    "ChainName": "La Michoacana Meat Market",
    "Label": "La Michoacana Meat Market",
    "Address": "2420 N Fitzhugh Ave",
    "Address2": "",
    "City": "Dallas",
    "PostalCode": 75204,
    "State": "TX",
    "Latitude": 32.8119683,
    "Longitude": -96.7825579
  },
  {
    "unique_id": "2750-2fc19da148f36471dddc548c36654964-d0c5220f6590ca3ed3358ee4cee7228a",
    "store_id": "",
    "StoreName": "Duck Creek & Broadway",
    "StoreNumber": 129,
    "ChainId": 2750,
    "ChainName": "La Michoacana Meat Market",
    "Label": "La Michoacana Meat Market",
    "Address": "6535 Duck Creek Dr",
    "Address2": "",
    "City": "Garland",
    "PostalCode": 75043,
    "State": "TX",
    "Latitude": 32.8463736,
    "Longitude": -96.5976819
  },
  {
    "unique_id": "2750-93bc302f4ec4be887b2b13fb1f54c7fd-e7fd86c185114adc010dcd2285709029",
    "store_id": "",
    "StoreName": "Grand Prairie",
    "StoreNumber": 142,
    "ChainId": 2750,
    "ChainName": "La Michoacana Meat Market",
    "Label": "La Michoacana Meat Market",
    "Address": "202 W. Pioneer Parkway",
    "Address2": "",
    "City": "Grand Prairie",
    "PostalCode": 75051,
    "State": "TX",
    "Latitude": 32.710018,
    "Longitude": -97.005474
  },
  {
    "unique_id": "2750-9133380c8a4a7bf496e40faa015f3561-f900da4ff5162f28eac821df03a2beae",
    "store_id": "",
    "StoreName": "Fort Worth Ave & Westmoreland",
    "StoreNumber": 113,
    "ChainId": 2750,
    "ChainName": "La Michoacana Meat Market",
    "Label": "La Michoacana Meat Market",
    "Address": "833 N Westmoreland Rd",
    "Address2": "",
    "City": "Dallas",
    "PostalCode": 75211,
    "State": "TX",
    "Latitude": 32.7521427,
    "Longitude": -96.8751018
  },
  {
    "unique_id": "2750-1d8856b97ec5f7082f2418426af50b54-57ed46b27570d945cb85b3ba2e12c472",
    "store_id": "",
    "StoreName": "I -30",
    "StoreNumber": 131,
    "ChainId": 2750,
    "ChainName": "La Michoacana Meat Market",
    "Label": "La Michoacana Meat Market",
    "Address": "8707 East R. L. Thornton Fwy",
    "Address2": "",
    "City": "Dallas",
    "PostalCode": 75228,
    "State": "TX",
    "Latitude": 32.7963193,
    "Longitude": -96.6934032
  },
  {
    "unique_id": "2750-e8c1a3568822a3fe8d848cdf863c3ef8-dd3ca4a713fd6a03175bc005226f5766",
    "store_id": "",
    "StoreName": "South Zang Blvd",
    "StoreNumber": 157,
    "ChainId": 2750,
    "ChainName": "La Michoacana Meat Market",
    "Label": "La Michoacana Meat Market",
    "Address": "2600 South Zang Blvd",
    "Address2": "",
    "City": "Dallas",
    "PostalCode": 75224,
    "State": "TX",
    "Latitude": 32.7161486,
    "Longitude": -96.8298034
  },
  {
    "unique_id": "2750-1c270a2aba28ea07b1f32480a470724e-ae860800d3601bc361c0cf84fabb68af",
    "store_id": "",
    "StoreName": "Duncanville",
    "StoreNumber": 154,
    "ChainId": 2750,
    "ChainName": "La Michoacana Meat Market",
    "Label": "La Michoacana Meat Market",
    "Address": "1109 E Highway 67",
    "Address2": "",
    "City": "Duncanville",
    "PostalCode": 75137,
    "State": "TX",
    "Latitude": 32.6464478,
    "Longitude": -96.8870858
  },
  {
    "unique_id": "2750-cd3518b4fb54322c641b5d1cfb7f217f-16e3158656e12a1103e6834ccce4936b",
    "store_id": "",
    "StoreName": "Gus Thomasson",
    "StoreNumber": 161,
    "ChainId": 2750,
    "ChainName": "La Michoacana Meat Market",
    "Label": "La Michoacana Meat Market",
    "Address": "2402 Gus",
    "Address2": "",
    "City": "Thomasson",
    "PostalCode": 75228,
    "State": "TX",
    "Latitude": 32.8341127,
    "Longitude": -96.6748762
  },
  {
    "unique_id": "6457-91cfc6ea4cd29b359cf057ddff04f9db-128547eb51baecea6383f3c3c8f3071c",
    "store_id": "",
    "StoreName": "Lowe's #167",
    "StoreNumber": 167,
    "ChainId": 6457,
    "ChainName": "Lowe's Market",
    "Label": "Lowe's Market",
    "Address": "100 E. Maginnis",
    "Address2": "",
    "City": "Chico",
    "PostalCode": 76431,
    "State": "TX",
    "Latitude": 33.2934011,
    "Longitude": -97.7971521
  },
  {
    "unique_id": "6457-03e080f4aa1f3f7315feb54f88688d93-17fd8ae85d0eace7d9f10e99f6595250",
    "store_id": "",
    "StoreName": "Lowe's #163",
    "StoreNumber": 163,
    "ChainId": 6457,
    "ChainName": "Lowe's Market",
    "Label": "Lowe's Market",
    "Address": "1501 Halsell St.",
    "Address2": "",
    "City": "Bridgeport",
    "PostalCode": 76426,
    "State": "TX",
    "Latitude": 33.2106541,
    "Longitude": -97.7519134
  },
  {
    "unique_id": "6457-1fc0bd6a3165501e6ec3ff9c38805ea4-71a134e5d9d55ff3bd86b5aa28795523",
    "store_id": "",
    "StoreName": "Lowe's #165",
    "StoreNumber": 165,
    "ChainId": 6457,
    "ChainName": "Lowe's Market",
    "Label": "Lowe's Market",
    "Address": "200 West Rock Island",
    "Address2": "",
    "City": "Boyd",
    "PostalCode": 76023,
    "State": "TX",
    "Latitude": 33.0781239,
    "Longitude": -97.5668013
  },
  {
    "unique_id": "6457-f5ecc36a29e06ca9eaf37e2d53b40ec7-b419c6a2aff7cb5c0f8427f05bec3f99",
    "store_id": "",
    "StoreName": "Lowe's #168",
    "StoreNumber": 168,
    "ChainId": 6457,
    "ChainName": "Lowe's Market",
    "Label": "Lowe's Market",
    "Address": "303 W. Franklin",
    "Address2": "",
    "City": "Alvord",
    "PostalCode": 76225,
    "State": "TX",
    "Latitude": 33.3592064,
    "Longitude": -97.6976599
  },
  {
    "unique_id": "6457-977c021680a49951d6e66df6a7ce2cef-2c0ed72b1240f49e2a57035348f1768d",
    "store_id": "",
    "StoreName": "Lowe's #160",
    "StoreNumber": 160,
    "ChainId": 6457,
    "ChainName": "Lowe's Market",
    "Label": "Lowe's Market",
    "Address": "1202 S. FM 51",
    "Address2": "",
    "City": "Decatur",
    "PostalCode": 76234,
    "State": "TX",
    "Latitude": 33.2262058,
    "Longitude": -97.5954848
  },
  {
    "unique_id": "6754-3a54db832770c2cf857ca59a6412b36a-f5c304cf317f1c1e6e0019eac655b51d",
    "store_id": "",
    "StoreName": "Malone's Cost Plus #3",
    "StoreNumber": 3,
    "ChainId": 6754,
    "ChainName": "Malone's Cost Plus",
    "Label": "Malone's Cost Plus",
    "Address": "323 Golden Triangle Shopping Center",
    "Address2": "",
    "City": "Dallas",
    "PostalCode": 75224,
    "State": "TX",
    "Latitude": 33.1903804,
    "Longitude": -97.1075458
  },
  {
    "unique_id": "3021-8e9a9ebb5c7b48c3787729be53ec78b4-a2c051810309e2dfdaf549187b046654",
    "store_id": "",
    "StoreName": "",
    "StoreNumber": 696,
    "ChainId": 3021,
    "ChainName": "Market Street",
    "Label": "Market Street",
    "Address": "3145 E. Broad Street",
    "Address2": "",
    "City": "Mansfield",
    "PostalCode": 76063,
    "State": "TX",
    "Latitude": 32.57596406,
    "Longitude": -97.0878654
  },
  {
    "unique_id": "3021-1fda022d928dd46bbdf879f296dfc599-749b49badf4e975a8d649f82e4df2a07",
    "store_id": "",
    "StoreName": "",
    "StoreNumber": 685,
    "ChainId": 3021,
    "ChainName": "Market Street",
    "Label": "Market Street",
    "Address": "4268 Legacy Drive",
    "Address2": "",
    "City": "Frisco",
    "PostalCode": 75034,
    "State": "TX",
    "Latitude": 33.1147111,
    "Longitude": -96.8375925
  },
  {
    "unique_id": "6757-01db6681ec8413ab508e2ecf609d524a-1aadefa046961b9d084901be9e18542e",
    "store_id": "",
    "StoreName": "",
    "StoreNumber": "",
    "ChainId": 6757,
    "ChainName": "Mitsuwa Marketplace",
    "Label": "Mitsuwa Marketplace",
    "Address": "100 Legacy Drive",
    "Address2": "",
    "City": "Plano",
    "PostalCode": 75023,
    "State": "TX",
    "Latitude": 33.066662,
    "Longitude": -96.693005
  },
  {
    "unique_id": "4054-043d05436325e6183cf22c3206c0f9cd-105ce618fc75592ee8a35bbe02487cff",
    "store_id": "",
    "StoreName": "Ft.Worth, TX",
    "StoreNumber": 703,
    "ChainId": 4054,
    "ChainName": "Restaurant Depot",
    "Label": "Restaurant Depot",
    "Address": "1171 Bridgewood Dr",
    "Address2": "",
    "City": "Fort Worth",
    "PostalCode": 76112,
    "State": "TX",
    "Latitude": 32.7630948,
    "Longitude": -97.2151047
  },
  {
    "unique_id": "4054-caa9c296de9597a53164bf31743618d4-79e2f68a7b3597dfe4de87dab16cedba",
    "store_id": "",
    "StoreName": "Dallas, TX",
    "StoreNumber": 68,
    "ChainId": 4054,
    "ChainName": "Restaurant Depot",
    "Label": "Restaurant Depot",
    "Address": "2151 Irving Blvd.",
    "Address2": "",
    "City": "Dallas",
    "PostalCode": "75207-6503",
    "State": "TX",
    "Latitude": 32.79458,
    "Longitude": -96.832594
  },
  {
    "unique_id": "4054-cf87ff325fd4047499b407103016fb76-3969189487c87e268957f51e46bd2b90",
    "store_id": "",
    "StoreName": "Richardson, TX",
    "StoreNumber": 75,
    "ChainId": 4054,
    "ChainName": "Restaurant Depot",
    "Label": "Restaurant Depot",
    "Address": "1300 N Glenville Drive",
    "Address2": "",
    "City": "Richardson",
    "PostalCode": "75081-2413",
    "State": "TX",
    "Latitude": 32.963421,
    "Longitude": -96.703895
  },
  {
    "unique_id": "4221-154b785432679b513069e4d61450daed-bcae2ae2a9d3d9f88a457f40e8b8c541",
    "store_id": "",
    "StoreName": "Lewisville Sam's Club",
    "StoreNumber": 6381,
    "ChainId": 4221,
    "ChainName": "Sam's Club",
    "Label": "Sam's Club",
    "Address": "751 W. Main St.",
    "Address2": "",
    "City": "Lewisville",
    "PostalCode": 75067,
    "State": "TX",
    "Latitude": 33.0481564,
    "Longitude": -97.0125603
  },
  {
    "unique_id": "4221-92d4ef1e83452058f959f77673a2bc58-2f1e78a19ca6d122951038326c0e7d76",
    "store_id": "",
    "StoreName": "Grand Prairie Sam's Club",
    "StoreNumber": 8269,
    "ChainId": 4221,
    "ChainName": "Sam's Club",
    "Label": "Sam's Club",
    "Address": "2325 W. Hwy. I 20",
    "Address2": "",
    "City": "Grand Prairie",
    "PostalCode": 75052,
    "State": "TX",
    "Latitude": 32.6732967,
    "Longitude": -97.0401032
  },
  {
    "unique_id": "4221-d650326bd969340335bcbfc4dc2ec7ac-ace57a3edaf1aa6612c15f6121d9517b",
    "store_id": "",
    "StoreName": "Dallas Sam's Club",
    "StoreNumber": 8282,
    "ChainId": 4221,
    "ChainName": "Sam's Club",
    "Label": "Sam's Club",
    "Address": "2900 W. Wheatland Rd.",
    "Address2": "",
    "City": "Dallas",
    "PostalCode": 75237,
    "State": "TX",
    "Latitude": 32.6454792,
    "Longitude": -96.8665849
  },
  {
    "unique_id": "4257-0a2648e92d9b34b43bbd9d48f126b051-fa89bbf4ddcad6c9e085f901923ea435",
    "store_id": "",
    "StoreName": "",
    "StoreNumber": 45119,
    "ChainId": 4257,
    "ChainName": "Save-A-Lot (Onex)",
    "Label": "Save-A-Lot",
    "Address": "3540 Simpson Stuart Rd",
    "Address2": "",
    "City": "Dallas",
    "PostalCode": 75241,
    "State": "TX",
    "Latitude": 32.6728211,
    "Longitude": -96.761315
  },
  {
    "unique_id": "4366-5b6a8a30184e3eced38739bdc7c00835-acd53fa79ee31e373cb70715fd54e27b",
    "store_id": "",
    "StoreName": "Dallas Superstore",
    "StoreNumber": 13,
    "ChainId": 4366,
    "ChainName": "Shun Fat Supermarket",
    "Label": "Shun Fat Supermarket",
    "Address": "3212 Jupiter Rd.",
    "Address2": "",
    "City": "Garland",
    "PostalCode": 75041,
    "State": "TX",
    "Latitude": 32.9470739,
    "Longitude": -96.68093185
  },
  {
    "unique_id": "4501-962530182b0dfaf21cafbca9260df660-e29e56c07bd116bb7688645041ef85f3",
    "store_id": "",
    "StoreName": "Spring Market of Godley",
    "StoreNumber": 721,
    "ChainId": 4501,
    "ChainName": "Spring Market",
    "Label": "Spring Market",
    "Address": "501 N Main",
    "Address2": "",
    "City": "Godley",
    "PostalCode": 76044,
    "State": "TX",
    "Latitude": 32.4553792,
    "Longitude": -97.521008
  },
  {
    "unique_id": "4501-4902cabfe5d62bbf06a8ba8274b53e7c-c82c58cefa709713322d640cda2632bf",
    "store_id": "",
    "StoreName": "Spring Market of Grandview",
    "StoreNumber": 720,
    "ChainId": 4501,
    "ChainName": "Spring Market",
    "Label": "Spring Market",
    "Address": "416 N 3rd St",
    "Address2": "",
    "City": "Grandview",
    "PostalCode": 76050,
    "State": "TX",
    "Latitude": 32.2772155,
    "Longitude": -97.1793975
  },
  {
    "unique_id": "4501-a67ffac1c51c4285bd9142549ac1038c-1a7e54a173df51b26508bf845df64331",
    "store_id": "",
    "StoreName": "Spring Market of Italy",
    "StoreNumber": 719,
    "ChainId": 4501,
    "ChainName": "Spring Market",
    "Label": "Spring Market",
    "Address": "721 Dale Evans Dr",
    "Address2": "",
    "City": "Italy",
    "PostalCode": 76651,
    "State": "TX",
    "Latitude": 32.1908958,
    "Longitude": -96.8963976
  },
  {
    "unique_id": "4501-f74b765f2c11f069b0bb423a53f37286-36ac89db46bd1cbbed6fb75d5a15b218",
    "store_id": "",
    "StoreName": "Spring Market of Palmer",
    "StoreNumber": 718,
    "ChainId": 4501,
    "ChainName": "Spring Market",
    "Label": "Spring Market",
    "Address": "428 N Dallas St",
    "Address2": "",
    "City": "Palmer",
    "PostalCode": 75152,
    "State": "TX",
    "Latitude": 32.4372763,
    "Longitude": -96.6692634
  },
  {
    "unique_id": "4501-0fce7222d50000e25b54550cea09bef9-534cb9e59aaf24ae59432d42f02052a2",
    "store_id": "",
    "StoreName": "Spring Market of Kemp",
    "StoreNumber": 715,
    "ChainId": 4501,
    "ChainName": "Spring Market",
    "Label": "Spring Market",
    "Address": "221 S State Hwy 274",
    "Address2": "",
    "City": "Kemp",
    "PostalCode": 75143,
    "State": "TX",
    "Latitude": 32.428337,
    "Longitude": -96.230146
  },
  {
    "unique_id": "4508-d74e25f4750dd5530a413cf4702f325b-2bec8386b3fde66627ad8c952ea0e2c4",
    "store_id": "",
    "StoreName": "South Lake (Store #104)",
    "StoreNumber": 104,
    "ChainId": 4508,
    "ChainName": "Sprouts Farmers Market",
    "Label": "Sprouts Farmers Market",
    "Address": "220 Randol Mill Ave",
    "Address2": "",
    "City": "Southlake",
    "PostalCode": 76092,
    "State": "TX",
    "Latitude": 32.93873,
    "Longitude": -97.186989
  },
  {
    "unique_id": "4508-52e38c195b52dc513de3ffa23e1707b8-4296629b98294c121cf05990aec78359",
    "store_id": "",
    "StoreName": "Rowlett (Store #145)",
    "StoreNumber": 145,
    "ChainId": 4508,
    "ChainName": "Sprouts Farmers Market",
    "Label": "Sprouts Farmers Market",
    "Address": "3001 Lakeview Pkwy",
    "Address2": "",
    "City": "Rowlett",
    "PostalCode": 75088,
    "State": "TX",
    "Latitude": 32.908826,
    "Longitude": -96.5733824
  },
  {
    "unique_id": "4508-2a4f0e63f7b85b58dc036cf61e9e204e-d6ef7589b79d41e0236864c63b82e00b",
    "store_id": "",
    "StoreName": "Richardson (Store #106)",
    "StoreNumber": 106,
    "ChainId": 4508,
    "ChainName": "Sprouts Farmers Market",
    "Label": "Sprouts Farmers Market",
    "Address": "1343 W Campbell Rd",
    "Address2": "",
    "City": "Richardson",
    "PostalCode": 75080,
    "State": "TX",
    "Latitude": 32.9768531,
    "Longitude": -96.7650535
  },
  {
    "unique_id": "4508-4a24618eb48f0e7f8fcab7d491223612-5190cc46d7c635e18e7fec5cc829f1ae",
    "store_id": "",
    "StoreName": "Plano (Store #101)",
    "StoreNumber": 101,
    "ChainId": 4508,
    "ChainName": "Sprouts Farmers Market",
    "Label": "Sprouts Farmers Market",
    "Address": "4100 E Legacy Dr",
    "Address2": "",
    "City": "Plano",
    "PostalCode": 75024,
    "State": "TX",
    "Latitude": 33.069769,
    "Longitude": -96.773476
  },
  {
    "unique_id": "4508-b398ff9136236f897c5a682c6cac3076-94c08131976893e1c24941ddccc715cd",
    "store_id": "",
    "StoreName": "Murphy (Store #107)",
    "StoreNumber": 107,
    "ChainId": 4508,
    "ChainName": "Sprouts Farmers Market",
    "Label": "Sprouts Farmers Market",
    "Address": "207 E FM 544",
    "Address2": "",
    "City": "Murphy",
    "PostalCode": 75094,
    "State": "TX",
    "Latitude": 33.0134962,
    "Longitude": -96.6079565
  },
  {
    "unique_id": "4508-fa0a1051132f5fb3de6d279dc559cee9-976ba5d8963e684663398c4fcabbd24e",
    "store_id": "",
    "StoreName": "McKinney (Store #132)",
    "StoreNumber": 132,
    "ChainId": 4508,
    "ChainName": "Sprouts Farmers Market",
    "Label": "Sprouts Farmers Market",
    "Address": "9241 Virginia Pkwy",
    "Address2": "",
    "City": "McKinney",
    "PostalCode": 75071,
    "State": "TX",
    "Latitude": 33.2023057,
    "Longitude": -96.7351368
  },
  {
    "unique_id": "4508-4428e2ca8ac724fce6bbb5e46e0af6c2-6efc4a22b8528758e6e11eaa40b08c06",
    "store_id": "",
    "StoreName": "Mansfield (Store #143)",
    "StoreNumber": 143,
    "ChainId": 4508,
    "ChainName": "Sprouts Farmers Market",
    "Label": "Sprouts Farmers Market",
    "Address": "1550 East Debbie Lane",
    "Address2": "",
    "City": "Mansfield",
    "PostalCode": 76063,
    "State": "TX",
    "Latitude": 32.6060402,
    "Longitude": -97.1131539
  },
  {
    "unique_id": "4508-33db33405fbeb21c6f0832195b17b64a-487280142f67a74b2510c4a5653239ae",
    "store_id": "",
    "StoreName": "Keller (Store #134)",
    "StoreNumber": 134,
    "ChainId": 4508,
    "ChainName": "Sprouts Farmers Market",
    "Label": "Sprouts Farmers Market",
    "Address": "2003 S Main St",
    "Address2": "",
    "City": "Keller",
    "PostalCode": 76248,
    "State": "TX",
    "Latitude": 32.897592,
    "Longitude": -97.255425
  },
  {
    "unique_id": "4508-194051e00494ff5b9cff3f9683a6c354-d15e9fafa3653edd33458be86e785f0f",
    "store_id": "",
    "StoreName": "Hurst (Store #142)",
    "StoreNumber": 142,
    "ChainId": 4508,
    "ChainName": "Sprouts Farmers Market",
    "Label": "Sprouts Farmers Market",
    "Address": "316 Grapevine Hwy",
    "Address2": "",
    "City": "Hurst",
    "PostalCode": 76054,
    "State": "TX",
    "Latitude": 32.8692541,
    "Longitude": -97.1719962
  },
  {
    "unique_id": "4508-ea89b2d56387cdeb2ba82052e4bbd7de-17eb4e75354cc454e5046cd34f58dad1",
    "store_id": "",
    "StoreName": "Frisco - Eldorado Pkwy. (Store #151)",
    "StoreNumber": 151,
    "ChainId": 4508,
    "ChainName": "Sprouts Farmers Market",
    "Label": "Sprouts Farmers Market",
    "Address": "2500 Eldorado Pkwy",
    "Address2": "",
    "City": "Frisco",
    "PostalCode": 75033,
    "State": "TX",
    "Latitude": 33.179899,
    "Longitude": -96.8675913
  },
  {
    "unique_id": "4508-6c6f947145844c0b7580a2b871b56c29-8e38473a499ac29f3bb60ca8140789eb",
    "store_id": "",
    "StoreName": "Frisco (Store #105)",
    "StoreNumber": 105,
    "ChainId": 4508,
    "ChainName": "Sprouts Farmers Market",
    "Label": "Sprouts Farmers Market",
    "Address": "5190 Preston Rd",
    "Address2": "",
    "City": "Frisco",
    "PostalCode": 75034,
    "State": "TX",
    "Latitude": 33.1216949,
    "Longitude": -96.802932
  },
  {
    "unique_id": "4508-9cf55113f21e06564d0e51f830ee5e36-1462e000c63bd501340276116912af1e",
    "store_id": "",
    "StoreName": "Fort Worth - Camp Bowie (Store #144)",
    "StoreNumber": 144,
    "ChainId": 4508,
    "ChainName": "Sprouts Farmers Market",
    "Label": "Sprouts Farmers Market",
    "Address": "6300 Waverly Way",
    "Address2": "",
    "City": "Fort Worth",
    "PostalCode": 76116,
    "State": "TX",
    "Latitude": 32.7260188,
    "Longitude": -97.4167862
  },
  {
    "unique_id": "4508-ac10217947ba61469cb8f179c339b7b5-1200f02ef7730ecb9165c79b6f715299",
    "store_id": "",
    "StoreName": "Fort Worth (Store #114)",
    "StoreNumber": 114,
    "ChainId": 4508,
    "ChainName": "Sprouts Farmers Market",
    "Label": "Sprouts Farmers Market",
    "Address": "4650 SW Loop 820",
    "Address2": "",
    "City": "Fort Worth",
    "PostalCode": 76109,
    "State": "TX",
    "Latitude": 32.6835196,
    "Longitude": -97.3938981
  },
  {
    "unique_id": "4508-6cf76308d15e248eb36000bed5101571-40a803fdea16ec9f57a78a20e38d66f6",
    "store_id": "",
    "StoreName": "Flower Mound (Store #102)",
    "StoreNumber": 102,
    "ChainId": 4508,
    "ChainName": "Sprouts Farmers Market",
    "Label": "Sprouts Farmers Market",
    "Address": "2301 Cross Timbers Rd",
    "Address2": "",
    "City": "Flower Mound",
    "PostalCode": 75028,
    "State": "TX",
    "Latitude": 33.033456,
    "Longitude": -97.064349
  },
  {
    "unique_id": "4508-9f176629210276676c7b8b91e8074880-368cc881d9a30f49584e66fab896b9ce",
    "store_id": "",
    "StoreName": "Denton (Store #148)",
    "StoreNumber": 148,
    "ChainId": 4508,
    "ChainName": "Sprouts Farmers Market",
    "Label": "Sprouts Farmers Market",
    "Address": "4930 Teasley Lane",
    "Address2": "",
    "City": "Denton",
    "PostalCode": 76210,
    "State": "TX",
    "Latitude": 33.1479305,
    "Longitude": -97.1069963
  },
  {
    "unique_id": "4508-b0493f3ca92b719210eab1fe345cd505-f13bae011fb047879f17129e6fcbfaaf",
    "store_id": "",
    "StoreName": "Dallas - Marsh Ln. (Store #103)",
    "StoreNumber": 103,
    "ChainId": 4508,
    "ChainName": "Sprouts Farmers Market",
    "Label": "Sprouts Farmers Market",
    "Address": "11722 Marsh Ln",
    "Address2": "",
    "City": "Dallas",
    "PostalCode": 75229,
    "State": "TX",
    "Latitude": 32.9084321,
    "Longitude": -96.8537846
  },
  {
    "unique_id": "4508-5a9055857d1667b880543bfe2d32e2a4-825147aeee46414579450836572e1937",
    "store_id": "",
    "StoreName": "Dallas - Lake Highlands (Store #149)",
    "StoreNumber": 149,
    "ChainId": 4508,
    "ChainName": "Sprouts Farmers Market",
    "Label": "Sprouts Farmers Market",
    "Address": "7110 Skillman St",
    "Address2": "",
    "City": "Dallas",
    "PostalCode": 75231,
    "State": "TX",
    "Latitude": 32.8761124,
    "Longitude": -96.7341862
  },
  {
    "unique_id": "4508-478865767f33ecefdd984c7a3c9c85f5-136fff24839bf780876b1f925c0bca36",
    "store_id": "",
    "StoreName": "Dallas - Henderson Ave. (Store #126)",
    "StoreNumber": 126,
    "ChainId": 4508,
    "ChainName": "Sprouts Farmers Market",
    "Label": "Sprouts Farmers Market",
    "Address": "1800 N Henderson Ave",
    "Address2": "",
    "City": "Dallas",
    "PostalCode": 75206,
    "State": "TX",
    "Latitude": 32.8111937,
    "Longitude": -96.7727172
  },
  {
    "unique_id": "4508-18711b661f51b113b283534aac1f6344-2e4f1aee4b930c990592a48284141eab",
    "store_id": "",
    "StoreName": "Coppell (Store #108)",
    "StoreNumber": 108,
    "ChainId": 4508,
    "ChainName": "Sprouts Farmers Market",
    "Label": "Sprouts Farmers Market",
    "Address": "110 W Sandy Lake Road",
    "Address2": "",
    "City": "Coppell",
    "PostalCode": 75019,
    "State": "TX",
    "Latitude": 32.970592,
    "Longitude": -96.995323
  },
  {
    "unique_id": "4508-220c1f1cbddc85ba3ab96ea8b7052764-09858a47255bc8c71b281d6a71165560",
    "store_id": "",
    "StoreName": "Cedar Hill (Store #113)",
    "StoreNumber": 113,
    "ChainId": 4508,
    "ChainName": "Sprouts Farmers Market",
    "Label": "Sprouts Farmers Market",
    "Address": "362 E FM 1382",
    "Address2": "",
    "City": "Cedar Hill",
    "PostalCode": 75104,
    "State": "TX",
    "Latitude": 32.5925361,
    "Longitude": -96.9390819
  },
  {
    "unique_id": "4508-8aec80ac2b9b1ceccc543ffae28aad48-5c2abdf8c052e42a80b2833d669a3c6e",
    "store_id": "",
    "StoreName": "Carrollton (Store #115)",
    "StoreNumber": 115,
    "ChainId": 4508,
    "ChainName": "Sprouts Farmers Market",
    "Label": "Sprouts Farmers Market",
    "Address": "1745 E Hebron Pkwy",
    "Address2": "",
    "City": "Carrollton",
    "PostalCode": 75010,
    "State": "TX",
    "Latitude": 33.025539,
    "Longitude": -96.888597
  },
  {
    "unique_id": "4508-25ef81d3bc3293cb38e7003c0d09b8e8-8c2f78fcf014e7e39e4699bdbe8f7271",
    "store_id": "",
    "StoreName": "Arlington (Store #140)",
    "StoreNumber": 140,
    "ChainId": 4508,
    "ChainName": "Sprouts Farmers Market",
    "Label": "Sprouts Farmers Market",
    "Address": "5711 W Interstate 20 Hwy",
    "Address2": "",
    "City": "Arlington",
    "PostalCode": 76017,
    "State": "TX",
    "Latitude": 32.676798,
    "Longitude": -97.1947717
  },
  {
    "unique_id": "4508-3cb9ac17e33e328516d1493065a2fa84-0cebb9790b3492071c994b508ac1ef6f",
    "store_id": "",
    "StoreName": "Allen (Store #147)",
    "StoreNumber": 147,
    "ChainId": 4508,
    "ChainName": "Sprouts Farmers Market",
    "Label": "Sprouts Farmers Market",
    "Address": "1265 W Exchange Parkway",
    "Address2": "",
    "City": "Allen",
    "PostalCode": 75013,
    "State": "TX",
    "Latitude": 33.1142577,
    "Longitude": -96.697323
  },
  {
    "unique_id": "4713-4220387339b0c21d8e4ad52743766b4a-ae0c3ec3b503642fd3c62d1ca8167a9e",
    "store_id": "",
    "StoreName": "Target Rockwall",
    "StoreNumber": 1065,
    "ChainId": 4713,
    "ChainName": "Target",
    "Label": "Target",
    "Address": "850 Steger Towne Rd",
    "Address2": "",
    "City": "Rockwall",
    "PostalCode": "75032-5658",
    "State": "TX",
    "Latitude": 32.8937459,
    "Longitude": -96.4674139
  },
  {
    "unique_id": "4713-067efed466e205c3664a538ce9042dff-61f6ea01ecb17bd4ed05fbffbb438f01",
    "store_id": "",
    "StoreName": "Target Mesquite",
    "StoreNumber": 2572,
    "ChainId": 4713,
    "ChainName": "Target",
    "Label": "Target",
    "Address": "1629 N Town East Blvd",
    "Address2": "",
    "City": "Mesquite",
    "PostalCode": "75150-4105",
    "State": "TX",
    "Latitude": 32.8137147,
    "Longitude": -96.6212344
  },
  {
    "unique_id": "4713-990cba987234e62d8566453d69472038-4f2a2babdd37adb4dd5b0926a4ce9a24",
    "store_id": "",
    "StoreName": "Target Rowlett",
    "StoreNumber": 2234,
    "ChainId": 4713,
    "ChainName": "Target",
    "Label": "Target",
    "Address": "4701 Lakeview Pkwy",
    "Address2": "",
    "City": "Rowlett",
    "PostalCode": "75088-4037",
    "State": "TX",
    "Latitude": 32.9088223,
    "Longitude": -96.5586618
  },
  {
    "unique_id": "4713-22c4162b57d2fbbc7da127c59d604243-b4dda9eb6e0b3d5fda334145cb5e02f6",
    "store_id": "",
    "StoreName": "Target Waxahachie",
    "StoreNumber": 1962,
    "ChainId": 4713,
    "ChainName": "Target",
    "Label": "Target",
    "Address": "1316 N Highway 77",
    "Address2": "",
    "City": "Waxahachie",
    "PostalCode": "75165-5116",
    "State": "TX",
    "Latitude": 32.4216765,
    "Longitude": -96.8369678
  },
  {
    "unique_id": "4713-a8b04c68b13034728b9ace2192f4ac3d-5d5506a04c2903caca55083af6b85956",
    "store_id": "",
    "StoreName": "Target Wylie",
    "StoreNumber": 2550,
    "ChainId": 4713,
    "ChainName": "Target",
    "Label": "Target",
    "Address": "3440 W FM 544",
    "Address2": "",
    "City": "Wylie",
    "PostalCode": "75098-9408",
    "State": "TX",
    "Latitude": 33.008663,
    "Longitude": -96.593938
  },
  {
    "unique_id": "4713-e781ee599c658beb356a4287f58468b1-9b56640d51a4ed194efd340347bf12c9",
    "store_id": "",
    "StoreName": "Target Garland East",
    "StoreNumber": 1489,
    "ChainId": 4713,
    "ChainName": "Target",
    "Label": "Target",
    "Address": "5301 N Garland Ave",
    "Address2": "",
    "City": "Garland",
    "PostalCode": "75040-2716",
    "State": "TX",
    "Latitude": 32.9656504,
    "Longitude": -96.6468061
  },
  {
    "unique_id": "4713-28d0d883febe442333c10926fc7eb4fc-36f5b445e7d864142c93788727579064",
    "store_id": "",
    "StoreName": "Target Dallas NE",
    "StoreNumber": 1784,
    "ChainId": 4713,
    "ChainName": "Target",
    "Label": "Target",
    "Address": "6419 Skillman St",
    "Address2": "",
    "City": "Dallas",
    "PostalCode": "75231-7109",
    "State": "TX",
    "Latitude": 32.8656309,
    "Longitude": -96.7456873
  },
  {
    "unique_id": "4713-4d415c5989681420af74b969ee3e3c10-1656beb1aaee73dca949e19fea011d08",
    "store_id": "",
    "StoreName": "Target Medallion",
    "StoreNumber": 55,
    "ChainId": 4713,
    "ChainName": "Target",
    "Label": "Target",
    "Address": "6464 E NORTHWEST HWY STE 212",
    "Address2": "",
    "City": "Dallas",
    "PostalCode": "75214-7802",
    "State": "TX",
    "Latitude": 32.8567919,
    "Longitude": -96.752504
  },
  {
    "unique_id": "4713-979590eea01692090a900641673ad084-c86e407f351fb9e570916c2c5e8d1d35",
    "store_id": "",
    "StoreName": "Target Richardson Sq Mall",
    "StoreNumber": 1430,
    "ChainId": 4713,
    "ChainName": "Target",
    "Label": "Target",
    "Address": "601 S Plano Rd",
    "Address2": "",
    "City": "Richardson",
    "PostalCode": "75081-4512",
    "State": "TX",
    "Latitude": 32.939908,
    "Longitude": -96.6967296
  },
  {
    "unique_id": "4713-2f2cf3fc234025c205efae3d884e2117-2ff8e32f10c13c14bd3afcdb749c1c17",
    "store_id": "",
    "StoreName": "Target Allen North",
    "StoreNumber": 2516,
    "ChainId": 4713,
    "ChainName": "Target",
    "Label": "Target",
    "Address": "150 E Stacy Rd",
    "Address2": "Ste 2400",
    "City": "Allen",
    "PostalCode": "75002-8756",
    "State": "TX",
    "Latitude": 33.123385,
    "Longitude": -96.661433
  },
  {
    "unique_id": "4713-75902b0f22b67309ed7b8b3f8a103a07-710b9eeecf799792be677d57c902a39b",
    "store_id": "",
    "StoreName": "Target Dallas South",
    "StoreNumber": 2334,
    "ChainId": 4713,
    "ChainName": "Target",
    "Label": "Target",
    "Address": "39739 LBJ Fwy",
    "Address2": "",
    "City": "Dallas",
    "PostalCode": "75237-3560",
    "State": "TX",
    "Latitude": 32.6500838,
    "Longitude": -96.8623487
  },
  {
    "unique_id": "4713-ade2ee55a3c7a1f3219e7ae93549032e-cc18b4f88cf4ac95c8b13cb5eccabe60",
    "store_id": "",
    "StoreName": "Target Allen",
    "StoreNumber": 1231,
    "ChainId": 4713,
    "ChainName": "Target",
    "Label": "Target",
    "Address": "907 W McDermott Dr",
    "Address2": "",
    "City": "Allen",
    "PostalCode": "75013-6503",
    "State": "TX",
    "Latitude": 33.0990736,
    "Longitude": -96.6816644
  },
  {
    "unique_id": "4713-37c3ccf5ad0f0b07207a3d9ac276b2bc-d96ae8c253d68ed428403d62418d1375",
    "store_id": "",
    "StoreName": "Target Plano",
    "StoreNumber": 67,
    "ChainId": 4713,
    "ChainName": "Target",
    "Label": "Target",
    "Address": "120 W Parker Rd",
    "Address2": "",
    "City": "Plano",
    "PostalCode": "75075-2331",
    "State": "TX",
    "Latitude": 33.0371405,
    "Longitude": -96.7078306
  },
  {
    "unique_id": "4713-124dabac0742ad6b8c4afac2cc6a7c8d-ffdc9ca3f697c0d0328ab1965f3ec6af",
    "store_id": "",
    "StoreName": "Target McKinney",
    "StoreNumber": 2335,
    "ChainId": 4713,
    "ChainName": "Target",
    "Label": "Target",
    "Address": "2025 N Central Expy",
    "Address2": "",
    "City": "Mckinney",
    "PostalCode": "75070-2911",
    "State": "TX",
    "Latitude": 33.2204744,
    "Longitude": -96.6387828
  },
  {
    "unique_id": "4713-1a813faf869fdf07c91ac984019b5169-6a938206c569f4977b3eadc7d90e8e47",
    "store_id": "",
    "StoreName": "Target Cedar Hill",
    "StoreNumber": 1836,
    "ChainId": 4713,
    "ChainName": "Target",
    "Label": "Target",
    "Address": "739 N Highway 67",
    "Address2": "",
    "City": "Cedar Hill",
    "PostalCode": "75104-2142",
    "State": "TX",
    "Latitude": 32.6026269,
    "Longitude": -96.9369091
  },
  {
    "unique_id": "4713-7433ce770cf10812282f649c7f6a3d42-94dd2f797d106aece86974781a1d6331",
    "store_id": "",
    "StoreName": "Target North Dallas Coit Road",
    "StoreNumber": 1775,
    "ChainId": 4713,
    "ChainName": "Target",
    "Label": "Target",
    "Address": "16731 Coit Rd",
    "Address2": "",
    "City": "Dallas",
    "PostalCode": "75248-1750",
    "State": "TX",
    "Latitude": 32.9826943,
    "Longitude": -96.7701852
  },
  {
    "unique_id": "4713-a93c2779a6a9e35a9111454a032776d3-6594106db52788e3bbf15558b284aca4",
    "store_id": "",
    "StoreName": "Target McKinney SW",
    "StoreNumber": 2142,
    "ChainId": 4713,
    "ChainName": "Target",
    "Label": "Target",
    "Address": "8900 State Highway 121",
    "Address2": "",
    "City": "McKinney",
    "PostalCode": "75070-2917",
    "State": "TX",
    "Latitude": 33.129452,
    "Longitude": -96.730759
  },
  {
    "unique_id": "4713-52ee6a5edf8cd409dbd048afb9143963-4892e5afc8964d93e117d0774821e19f",
    "store_id": "",
    "StoreName": "Target Love Field",
    "StoreNumber": 947,
    "ChainId": 4713,
    "ChainName": "Target",
    "Label": "Target",
    "Address": "9440 Marsh Ln",
    "Address2": "",
    "City": "Dallas",
    "PostalCode": "75220-4924",
    "State": "TX",
    "Latitude": 32.8623108,
    "Longitude": -96.8538325
  },
  {
    "unique_id": "4713-beed52884473aab7d209147c38dba70f-10617b60393d0bc217a7892d2d8c5d43",
    "store_id": "",
    "StoreName": "Target Plano West",
    "StoreNumber": 1764,
    "ChainId": 4713,
    "ChainName": "Target",
    "Label": "Target",
    "Address": "2200 Dallas Pkwy",
    "Address2": "",
    "City": "Plano",
    "PostalCode": "75093-4300",
    "State": "TX",
    "Latitude": 33.0304113,
    "Longitude": -96.8270378
  },
  {
    "unique_id": "4713-48a63711a687b76cad6361650de9d5c6-0919401ecb956da089c21dcde2122b1f",
    "store_id": "",
    "StoreName": "Target Grand Prairie",
    "StoreNumber": 1116,
    "ChainId": 4713,
    "ChainName": "Target",
    "Label": "Target",
    "Address": "554 W Interstate 20",
    "Address2": "",
    "City": "Grand Prairie",
    "PostalCode": "75052-6932",
    "State": "TX",
    "Latitude": 32.6784366,
    "Longitude": -97.0101422
  },
  {
    "unique_id": "4713-c7d437a10b08e35aebebd0f55b473624-598e181a3f4ffba96288f40b962fdf7b",
    "store_id": "",
    "StoreName": "Target Grand Prairie S",
    "StoreNumber": 2243,
    "ChainId": 4713,
    "ChainName": "Target",
    "Label": "Target",
    "Address": "5270 S State Highway 360",
    "Address2": "",
    "City": "Grand Prairie",
    "PostalCode": "75052-8307",
    "State": "TX",
    "Latitude": 32.6432256,
    "Longitude": -97.0599308
  },
  {
    "unique_id": "4713-24d16dcb158a477f9d96f289a7f4ce2b-af03fd05f2ec1a428e86a2d357850b57",
    "store_id": "",
    "StoreName": "Target Lewisville",
    "StoreNumber": 2520,
    "ChainId": 4713,
    "ChainName": "Target",
    "Label": "Target",
    "Address": "4760 State Highway 121",
    "Address2": "",
    "City": "Lewisville",
    "PostalCode": "75056-2913",
    "State": "TX",
    "Latitude": 33.0638023,
    "Longitude": -96.8844668
  },
  {
    "unique_id": "4713-fbccf52f74b30bec4a120db2f41648de-97188c81d0f226b423a88fb26f0a4ea0",
    "store_id": "",
    "StoreName": "Target Frisco North",
    "StoreNumber": 2338,
    "ChainId": 4713,
    "ChainName": "Target",
    "Label": "Target",
    "Address": "4885 Eldorado Pkwy",
    "Address2": "",
    "City": "Frisco",
    "PostalCode": "75033-8662",
    "State": "TX",
    "Latitude": 33.1730693,
    "Longitude": -96.8445674
  },
  {
    "unique_id": "4713-c3e1337a035944bb17c1f5bf79f343e4-c6bcb709705310ae919ba425ab0034f2",
    "store_id": "",
    "StoreName": "Target Irving",
    "StoreNumber": 255,
    "ChainId": 4713,
    "ChainName": "Target",
    "Label": "Target",
    "Address": "3333 W Airport Fwy",
    "Address2": "",
    "City": "Irving",
    "PostalCode": "75062-5921",
    "State": "TX",
    "Latitude": 32.839717,
    "Longitude": -96.99063
  },
  {
    "unique_id": "4713-6f9d1758b4fbeb3a6be21d3e6c90d489-853846ff308f83682232900ab1818c1b",
    "store_id": "",
    "StoreName": "Target Mansfield",
    "StoreNumber": 1536,
    "ChainId": 4713,
    "ChainName": "Target",
    "Label": "Target",
    "Address": "1801 Highway 287 N",
    "Address2": "",
    "City": "Mansfield",
    "PostalCode": "76063-7533",
    "State": "TX",
    "Latitude": 32.5897783,
    "Longitude": -97.144564
  },
  {
    "unique_id": "4713-2a997fbb1cab88f104d85d44cc67abb6-50a77720f8e89e7b582e1752f6ec423b",
    "store_id": "",
    "StoreName": "Target Vista Ridge",
    "StoreNumber": 1395,
    "ChainId": 4713,
    "ChainName": "Target",
    "Label": "Target",
    "Address": "725 Hebron Pkwy",
    "Address2": "",
    "City": "Lewisville",
    "PostalCode": "75057-5001",
    "State": "TX",
    "Latitude": 33.0124429,
    "Longitude": -96.9711743
  },
  {
    "unique_id": "4713-182cf9c5b3e7d596aad51778794311f1-27d488892352a14022ce3fbda91d083b",
    "store_id": "",
    "StoreName": "Target Arlington South",
    "StoreNumber": 1339,
    "ChainId": 4713,
    "ChainName": "Target",
    "Label": "Target",
    "Address": "1600 W Arbrook Blvd",
    "Address2": "",
    "City": "Arlington",
    "PostalCode": "76015-4107",
    "State": "TX",
    "Latitude": 32.6838436,
    "Longitude": -97.1363853
  },
  {
    "unique_id": "4713-bf362d020ce0e4acc25c3387903fd12c-ed8c2e70c912c44fb712c948b3524e28",
    "store_id": "",
    "StoreName": "Target Grapevine",
    "StoreNumber": 876,
    "ChainId": 4713,
    "ChainName": "Target",
    "Label": "Target",
    "Address": "1101 Ira E Woods Ave",
    "Address2": "",
    "City": "Grapevine",
    "PostalCode": "76051-4020",
    "State": "TX",
    "Latitude": 32.9305641,
    "Longitude": -97.0894918
  },
  {
    "unique_id": "4713-e1fa3401fd27810f2e20a453b486cf34-d0954994cb2f675ee1e603a7d958d104",
    "store_id": "",
    "StoreName": "Target Flower Mound",
    "StoreNumber": 1517,
    "ChainId": 4713,
    "ChainName": "Target",
    "Label": "Target",
    "Address": "5959 Long Prairie Rd",
    "Address2": "",
    "City": "Flower Mound",
    "PostalCode": "75028-2224",
    "State": "TX",
    "Latitude": 33.067528,
    "Longitude": -97.083388
  },
  {
    "unique_id": "4713-5c3eb5e89a8e444142301b6b2cc9793e-5762fa5e73fce7a1403b3cb151b49b6f",
    "store_id": "",
    "StoreName": "Target Hurst",
    "StoreNumber": 1766,
    "ChainId": 4713,
    "ChainName": "Target",
    "Label": "Target",
    "Address": "1400 Precinct Line Rd",
    "Address2": "",
    "City": "Hurst",
    "PostalCode": "76053-3828",
    "State": "TX",
    "Latitude": 32.8366935,
    "Longitude": -97.1835874
  },
  {
    "unique_id": "4713-698898b96f9ea376c6220411ee66f591-30e49b9ebf17601a2cef7e629be61427",
    "store_id": "",
    "StoreName": "Target Burleson",
    "StoreNumber": 1922,
    "ChainId": 4713,
    "ChainName": "Target",
    "Label": "Target",
    "Address": "200 NW John Jones Dr",
    "Address2": "",
    "City": "Burleson",
    "PostalCode": "76028-5615",
    "State": "TX",
    "Latitude": 32.5241576,
    "Longitude": -97.3492343
  },
  {
    "unique_id": "4713-57efb55cf03a6bd1e54f339073c88376-2fdff7c3215b91a88bf6454272bc8829",
    "store_id": "",
    "StoreName": "Target North Richland Hills",
    "StoreNumber": 1514,
    "ChainId": 4713,
    "ChainName": "Target",
    "Label": "Target",
    "Address": "8532 Davis Blvd",
    "Address2": "",
    "City": "North Richland Hills",
    "PostalCode": "76182-8300",
    "State": "TX",
    "Latitude": 32.9080726,
    "Longitude": -97.1880985
  },
  {
    "unique_id": "4713-95122a1e7eb22ab5dcc49557871765d5-37b4c12ff2d1a2d5074addff3a8b0cbe",
    "store_id": "",
    "StoreName": "Target Watauga",
    "StoreNumber": 1765,
    "ChainId": 4713,
    "ChainName": "Target",
    "Label": "Target",
    "Address": "8000 Denton Hwy",
    "Address2": "",
    "City": "Watauga",
    "PostalCode": "76148-2464",
    "State": "TX",
    "Latitude": 32.8894599,
    "Longitude": -97.2567145
  },
  {
    "unique_id": "4713-c323f533f4c2b2c352171aae1226797f-2ff22f5cf631ee9ab3725ab267c839cd",
    "store_id": "",
    "StoreName": "Target Fort Worth Central",
    "StoreNumber": 2042,
    "ChainId": 4713,
    "ChainName": "Target",
    "Label": "Target",
    "Address": "301 Carroll St",
    "Address2": "",
    "City": "Fort Worth",
    "PostalCode": "76107-1956",
    "State": "TX",
    "Latitude": 32.7559901,
    "Longitude": -97.3536788
  },
  {
    "unique_id": "4713-56105c030d8a66b8895ecad0345d6356-b0b41ca309f4f2370396a74fb50339b2",
    "store_id": "",
    "StoreName": "Target Cityview",
    "StoreNumber": 1770,
    "ChainId": 4713,
    "ChainName": "Target",
    "Label": "Target",
    "Address": "5700 Overton Ridge Blvd",
    "Address2": "",
    "City": "Fort Worth",
    "PostalCode": "76132-3220",
    "State": "TX",
    "Latitude": 32.6791756,
    "Longitude": -97.412786
  },
  {
    "unique_id": "4713-b36ccfc8f457e1b64d33f519f4b78df0-77542bb4964d08f7f3a6d10478ea3448",
    "store_id": "",
    "StoreName": "Target Fort Worth",
    "StoreNumber": 2754,
    "ChainId": 4713,
    "ChainName": "Target",
    "Label": "Target",
    "Address": "8917 Tehama Ridge Pkwy",
    "Address2": "",
    "City": "Fort Worth",
    "PostalCode": "76177-2005",
    "State": "TX",
    "Latitude": 32.9016943,
    "Longitude": -97.3235175
  },
  {
    "unique_id": "4713-92a676f1dcbb3a7d6694a44f51a6de51-b842ab790fe7abfa5d0547dc61ba2ae1",
    "store_id": "",
    "StoreName": "Target Ridgmar",
    "StoreNumber": 2425,
    "ChainId": 4713,
    "ChainName": "Target",
    "Label": "Target",
    "Address": "751 Alta Mere Dr",
    "Address2": "",
    "City": "Fort Worth",
    "PostalCode": "76116-1526",
    "State": "TX",
    "Latitude": 32.7484164,
    "Longitude": -97.4317144
  },
  {
    "unique_id": "4713-44393625ce0bd5d6de09f77e24505ca5-1e8bcde0e16e671b6040f9cd54106526",
    "store_id": "",
    "StoreName": "Target Lake Worth",
    "StoreNumber": 2008,
    "ChainId": 4713,
    "ChainName": "Target",
    "Label": "Target",
    "Address": "6604 Lake Worth Blvd",
    "Address2": "",
    "City": "Lake Worth",
    "PostalCode": "76135-3000",
    "State": "TX",
    "Latitude": 32.814083,
    "Longitude": -97.4300483
  },
  {
    "unique_id": "4713-7de9fa0cffc84886f237fc7bd84f7c0b-a43278e78ee1fec735a87b1d75b91195",
    "store_id": "",
    "StoreName": "Target Weatherford",
    "StoreNumber": 1981,
    "ChainId": 4713,
    "ChainName": "Target",
    "Label": "Target",
    "Address": "122 E Interstate 20",
    "Address2": "",
    "City": "Weatherford",
    "PostalCode": "76087-8556",
    "State": "TX",
    "Latitude": 32.7270165,
    "Longitude": -97.7842366
  },
  {
    "unique_id": "4738-bad7b6bbca147e4557ce046bd1b53ea5-ae81429b124613ccc3b31c151f5c29b7",
    "store_id": "",
    "StoreName": "Terry's Supermarket Ducanville",
    "StoreNumber": 15,
    "ChainId": 4738,
    "ChainName": "Terry's Supermarket",
    "Label": "Terry's Supermarket",
    "Address": "303 E. Camp Wisdom Rd",
    "Address2": "",
    "City": "Ducanville",
    "PostalCode": 75116,
    "State": "TX",
    "Latitude": 32.6627797,
    "Longitude": -96.9029418
  },
  {
    "unique_id": "4738-986d240368c929a7e5526606c4039d8d-4d1be2d43a84fde0d0c4219ac1200c16",
    "store_id": "",
    "StoreName": "Terry's Supermarket Plano",
    "StoreNumber": 9,
    "ChainId": 4738,
    "ChainName": "Terry's Supermarket",
    "Label": "Terry's Supermarket",
    "Address": "1804 K Ave.",
    "Address2": "",
    "City": "Plano",
    "PostalCode": "75074-5908",
    "State": "TX",
    "Latitude": 33.0242681,
    "Longitude": -96.6978299
  },
  {
    "unique_id": "4738-9c3e553674e80ba928cbd80ebd4c5ffc-993ba940aac670478f3565cded9f12f7",
    "store_id": "",
    "StoreName": "Terry's Supermarket Lewisville",
    "StoreNumber": 7,
    "ChainId": 4738,
    "ChainName": "Terry's Supermarket",
    "Label": "Terry's Supermarket",
    "Address": "1019 Fox Ave",
    "Address2": "",
    "City": "Lewisville",
    "PostalCode": "75067-5127",
    "State": "TX",
    "Latitude": 33.035927,
    "Longitude": -97.0122573
  },
  {
    "unique_id": "4738-32e8fe904c552f35a7764e6d48ae470f-fcdd7378ea002ce4e9bb47b46bf62f23",
    "store_id": "",
    "StoreName": "Terry's Supermarket & Fuel Center Webb Chapel",
    "StoreNumber": 6,
    "ChainId": 4738,
    "ChainName": "Terry's Supermarket",
    "Label": "Terry's Supermarket",
    "Address": "3025 Webb Chapel Ext.",
    "Address2": "",
    "City": "Dallas",
    "PostalCode": "75220-6205",
    "State": "TX",
    "Latitude": 32.8588587,
    "Longitude": -96.8686391
  },
  {
    "unique_id": "4738-9279a06a8017abfd7b7c981c84721658-874964cf3e5b1b8713ad9901b1d2a2b3",
    "store_id": "",
    "StoreName": "Terry's Supermarket Hemphill",
    "StoreNumber": 5,
    "ChainId": 4738,
    "ChainName": "Terry's Supermarket",
    "Label": "Terry's Supermarket",
    "Address": "3900 Hemphill St.",
    "Address2": "",
    "City": "Fort Worth",
    "PostalCode": "76110-6252",
    "State": "TX",
    "Latitude": 32.69060164,
    "Longitude": -97.33247548
  },
  {
    "unique_id": "4738-88ace6e385ecf8e3b4cf1d71f0fb6756-197989b7c8781d5837b9fceac21d2e8e",
    "store_id": "",
    "StoreName": "Terry's Supermarket Grand Central Ctr.",
    "StoreNumber": 1,
    "ChainId": 4738,
    "ChainName": "Terry's Supermarket",
    "Label": "Terry's Supermarket",
    "Address": "1830 E. Main St., Suite 160",
    "Address2": "",
    "City": "Grand Prairie",
    "PostalCode": "75050-6043",
    "State": "TX",
    "Latitude": 32.7505588,
    "Longitude": -96.9788089
  },
  {
    "unique_id": "4936-6ea9c3cf73eb1135722d0ecdbcee0596-8c2042b8eb22deac8a548e6f3b8394d7",
    "store_id": "",
    "StoreName": "Tom Thumb",
    "StoreNumber": 3622,
    "ChainId": 4936,
    "ChainName": "Tom Thumb Food & Pharmacy",
    "Label": "Tom Thumb Food & Pharmacy",
    "Address": "6377 Camp Bowie Blvd",
    "Address2": "",
    "City": "Fort Worth",
    "PostalCode": 76116,
    "State": "TX",
    "Latitude": 32.7250898,
    "Longitude": -97.4201864
  },
  {
    "unique_id": "4936-ed3d34b259b6a5d69d669fc18657318f-1b9f2abf8be2f36298eb5abf82251c6d",
    "store_id": "",
    "StoreName": "Tom Thumb",
    "StoreNumber": 2574,
    "ChainId": 4936,
    "ChainName": "Tom Thumb Food & Pharmacy",
    "Label": "Tom Thumb Food & Pharmacy",
    "Address": "3100 S Hulen St",
    "Address2": "",
    "City": "Fort Worth",
    "PostalCode": 76109,
    "State": "TX",
    "Latitude": 32.7060435,
    "Longitude": -97.3901054
  },
  {
    "unique_id": "4936-f34a21a0f417ff4905648d063d946fe8-3d09e920af5d8741ce8a27bcd59a45cd",
    "store_id": "",
    "StoreName": "Tom Thumb",
    "StoreNumber": 3312,
    "ChainId": 4936,
    "ChainName": "Tom Thumb Food & Pharmacy",
    "Label": "Tom Thumb Food & Pharmacy",
    "Address": "2400 W 7th St",
    "Address2": "",
    "City": "Fort Worth",
    "PostalCode": 76107,
    "State": "TX",
    "Latitude": 32.7514911,
    "Longitude": -97.3513019
  },
  {
    "unique_id": "4936-8111f2e0983a409723616c66e3af7804-3f60168f998ca47b59c9cd4b6b85b936",
    "store_id": "",
    "StoreName": "Tom Thumb",
    "StoreNumber": 1972,
    "ChainId": 4936,
    "ChainName": "Tom Thumb Food & Pharmacy",
    "Label": "Tom Thumb Food & Pharmacy",
    "Address": "980 Hwy N 287",
    "Address2": "",
    "City": "Mansfield",
    "PostalCode": 76063,
    "State": "TX",
    "Latitude": 32.5823516,
    "Longitude": -97.1288514
  },
  {
    "unique_id": "4936-aeea13d8fdc06d9b05704946a0a07eb2-847c7b6fa9998409a37c05d6fbf27c2a",
    "store_id": "",
    "StoreName": "Tom Thumb",
    "StoreNumber": 3617,
    "ChainId": 4936,
    "ChainName": "Tom Thumb Food & Pharmacy",
    "Label": "Tom Thumb Food & Pharmacy",
    "Address": "2611 W Park Row",
    "Address2": "",
    "City": "Arlington",
    "PostalCode": 76013,
    "State": "TX",
    "Latitude": 32.7227566,
    "Longitude": -97.1503776
  },
  {
    "unique_id": "4936-bcb9b540a1195a82589f9bfb5d37d71e-e22601277c7a28f933fdbd749312da76",
    "store_id": "",
    "StoreName": "Tom Thumb",
    "StoreNumber": 2686,
    "ChainId": 4936,
    "ChainName": "Tom Thumb Food & Pharmacy",
    "Label": "Tom Thumb Food & Pharmacy",
    "Address": "1701 Randol Mill Rd",
    "Address2": "",
    "City": "Arlington",
    "PostalCode": 76012,
    "State": "TX",
    "Latitude": 32.7508418,
    "Longitude": -97.1337184
  },
  {
    "unique_id": "4936-eb3cba8451d1d314d5fc6c860ba67222-f730486bf14f77b585ff5bac1d14349e",
    "store_id": "",
    "StoreName": "Tom Thumb",
    "StoreNumber": 2609,
    "ChainId": 4936,
    "ChainName": "Tom Thumb Food & Pharmacy",
    "Label": "Tom Thumb Food & Pharmacy",
    "Address": "612 Grapevine Hwy",
    "Address2": "",
    "City": "Hurst",
    "PostalCode": 76054,
    "State": "TX",
    "Latitude": 32.8640612,
    "Longitude": -97.1795011
  },
  {
    "unique_id": "4936-827eab10c30a7ee41c21dadbe2218377-ae870fb9e64a6e719057c16191d6d42b",
    "store_id": "",
    "StoreName": "Tom Thumb",
    "StoreNumber": 1780,
    "ChainId": 4936,
    "ChainName": "Tom Thumb Food & Pharmacy",
    "Label": "Tom Thumb Food & Pharmacy",
    "Address": "1000 Keller Pkwy",
    "Address2": "",
    "City": "Keller",
    "PostalCode": 76248,
    "State": "TX",
    "Latitude": 32.9322207,
    "Longitude": -97.2279994
  },
  {
    "unique_id": "4936-fb8f9bb5b19a25b5d3e30939cb8a10a1-728fa5f32be7ce1dd1e42568edfdf041",
    "store_id": "",
    "StoreName": "Tom Thumb",
    "StoreNumber": 3658,
    "ChainId": 4936,
    "ChainName": "Tom Thumb Food & Pharmacy",
    "Label": "Tom Thumb Food & Pharmacy",
    "Address": "2755 N Collins St",
    "Address2": "",
    "City": "Arlington",
    "PostalCode": 76006,
    "State": "TX",
    "Latitude": 32.7832246,
    "Longitude": -97.0933539
  },
  {
    "unique_id": "4936-b10313f6c9163514f41f2ea0c7a050b5-f2a9afef44bebe6831b6c5d93cd6132e",
    "store_id": "",
    "StoreName": "Tom Thumb",
    "StoreNumber": 1786,
    "ChainId": 4936,
    "ChainName": "Tom Thumb Food & Pharmacy",
    "Label": "Tom Thumb Food & Pharmacy",
    "Address": "4215 S Carrier Pkwy",
    "Address2": "",
    "City": "Grand Prairie",
    "PostalCode": 75052,
    "State": "TX",
    "Latitude": 32.6712317,
    "Longitude": -97.0034133
  },
  {
    "unique_id": "4936-96623d619e722d0ea1f503c6f36086c1-73dbf3867a7f81c6d4291c4cd844bd08",
    "store_id": "",
    "StoreName": "Tom Thumb",
    "StoreNumber": 2580,
    "ChainId": 4936,
    "ChainName": "Tom Thumb Food & Pharmacy",
    "Label": "Tom Thumb Food & Pharmacy",
    "Address": "100 W Southlake Blvd",
    "Address2": "",
    "City": "Southlake",
    "PostalCode": 76092,
    "State": "TX",
    "Latitude": 32.943235,
    "Longitude": -97.1518314
  },
  {
    "unique_id": "4936-75541832c171bd3a21a15eb78105aade-3016cbe8e1212e64d52a027546c976bf",
    "store_id": "",
    "StoreName": "Tom Thumb",
    "StoreNumber": 3563,
    "ChainId": 4936,
    "ChainName": "Tom Thumb Food & Pharmacy",
    "Label": "Tom Thumb Food & Pharmacy",
    "Address": "633 W Wheatland Rd",
    "Address2": "",
    "City": "Duncanville",
    "PostalCode": 75116,
    "State": "TX",
    "Latitude": 32.6482398,
    "Longitude": -96.9228482
  },
  {
    "unique_id": "4936-42c4bc378fe016515c23ba2c3cf190c4-57a91358f7a41fb299035139de172e10",
    "store_id": "",
    "StoreName": "Tom Thumb",
    "StoreNumber": 3854,
    "ChainId": 4936,
    "ChainName": "Tom Thumb Food & Pharmacy",
    "Label": "Tom Thumb Food & Pharmacy",
    "Address": "4000 William D. Tate Ave",
    "Address2": "",
    "City": "Grapevine",
    "PostalCode": 76051,
    "State": "TX",
    "Latitude": 32.8919509,
    "Longitude": -97.1021434
  },
  {
    "unique_id": "4936-a87cc232cfbdfc7c35e529d445eaedf2-af72b1dc9986dfb6af7fbf41a3662810",
    "store_id": "",
    "StoreName": "Tom Thumb",
    "StoreNumber": 3623,
    "ChainId": 4936,
    "ChainName": "Tom Thumb Food & Pharmacy",
    "Label": "Tom Thumb Food & Pharmacy",
    "Address": "210 E Pleasant Run Rd",
    "Address2": "",
    "City": "Desoto",
    "PostalCode": 75115,
    "State": "TX",
    "Latitude": 32.6028836,
    "Longitude": -96.8556216
  },
  {
    "unique_id": "4936-a83e0955b1db73d7e444e19c0703b0ef-e64f78c6184845d6341d82901e6cbe88",
    "store_id": "",
    "StoreName": "Tom Thumb",
    "StoreNumber": 3625,
    "ChainId": 4936,
    "ChainName": "Tom Thumb Food & Pharmacy",
    "Label": "Tom Thumb Food & Pharmacy",
    "Address": "302 S Park Blvd",
    "Address2": "",
    "City": "Grapevine",
    "PostalCode": 76051,
    "State": "TX",
    "Latitude": 32.9388549,
    "Longitude": -97.0971994
  },
  {
    "unique_id": "4936-7e7a072e1652ba8a03c8658d9919a428-b2b1be8ccde83e5d670f6feb367595c2",
    "store_id": "",
    "StoreName": "Tom Thumb",
    "StoreNumber": 2559,
    "ChainId": 4936,
    "ChainName": "Tom Thumb Food & Pharmacy",
    "Label": "Tom Thumb Food & Pharmacy",
    "Address": "3535 Belt Line Rd",
    "Address2": "",
    "City": "Irving",
    "PostalCode": 75062,
    "State": "TX",
    "Latitude": 32.8549027,
    "Longitude": -96.9937816
  },
  {
    "unique_id": "4936-f3e90a001466fcba961e6d426a7652c6-b48da62665a48a33a16e4c7d0ec12868",
    "store_id": "",
    "StoreName": "Tom Thumb",
    "StoreNumber": 1854,
    "ChainId": 4936,
    "ChainName": "Tom Thumb Food & Pharmacy",
    "Label": "Tom Thumb Food & Pharmacy",
    "Address": "4301 Cross Timbers Rd",
    "Address2": "",
    "City": "Flower Mound",
    "PostalCode": 75028,
    "State": "TX",
    "Latitude": 33.0398737,
    "Longitude": -97.0977349
  },
  {
    "unique_id": "4936-c39515f4f1e6cccbac66ba897fca41f5-9c1c721478c4a5da9e121cd9992df919",
    "store_id": "",
    "StoreName": "Tom Thumb",
    "StoreNumber": 3621,
    "ChainId": 4936,
    "ChainName": "Tom Thumb Food & Pharmacy",
    "Label": "Tom Thumb Food & Pharmacy",
    "Address": "4010 N Macarthur Blvd",
    "Address2": "",
    "City": "Irving",
    "PostalCode": 75038,
    "State": "TX",
    "Latitude": 32.8598361,
    "Longitude": -96.9572984
  },
  {
    "unique_id": "4936-980a7026508ef7762ffff474a5df0f97-7721015fa18dd6edf881db1bb6509811",
    "store_id": "",
    "StoreName": "Tom Thumb",
    "StoreNumber": 3614,
    "ChainId": 4936,
    "ChainName": "Tom Thumb Food & Pharmacy",
    "Label": "Tom Thumb Food & Pharmacy",
    "Address": "315 S Hampton Rd",
    "Address2": "",
    "City": "Dallas",
    "PostalCode": 75208,
    "State": "TX",
    "Latitude": 32.7425535,
    "Longitude": -96.858438
  },
  {
    "unique_id": "4936-630e1bcfc029712a65f5ca2f6823a5d8-33c09acdc3ddc98a88accd2736871ba5",
    "store_id": "",
    "StoreName": "Tom Thumb",
    "StoreNumber": 3572,
    "ChainId": 4936,
    "ChainName": "Tom Thumb Food & Pharmacy",
    "Label": "Tom Thumb Food & Pharmacy",
    "Address": "2600 Flower Mound Rd",
    "Address2": "",
    "City": "Flower Mound",
    "PostalCode": 75028,
    "State": "TX",
    "Latitude": 33.0153571,
    "Longitude": -97.0685166
  },
  {
    "unique_id": "4936-2d1232b89a83e85e5686cf712ef131fe-252fc7a9b0b2ef0c703aac465f0c28dd",
    "store_id": "",
    "StoreName": "Tom Thumb",
    "StoreNumber": 1781,
    "ChainId": 4936,
    "ChainName": "Tom Thumb Food & Pharmacy",
    "Label": "Tom Thumb Food & Pharmacy",
    "Address": "106 N Denton Tap Rd",
    "Address2": "",
    "City": "Coppell",
    "PostalCode": 75019,
    "State": "TX",
    "Latitude": 32.9705911,
    "Longitude": -96.9919275
  },
  {
    "unique_id": "4936-c0ad4cdbf1341cabf9bea602be2b1fd6-67071c8812cde0f31e225b30d4f619dd",
    "store_id": "",
    "StoreName": "Tom Thumb",
    "StoreNumber": 1785,
    "ChainId": 4936,
    "ChainName": "Tom Thumb Food & Pharmacy",
    "Label": "Tom Thumb Food & Pharmacy",
    "Address": "1075 W FM 3040",
    "Address2": "",
    "City": "Lewisville",
    "PostalCode": 75067,
    "State": "TX",
    "Latitude": 33.0067384,
    "Longitude": -97.0169941
  },
  {
    "unique_id": "4936-e7336e9bedaf209814b0332f24e58aba-c7431494ad12ed9006c84fd9df474788",
    "store_id": "",
    "StoreName": "Tom Thumb",
    "StoreNumber": 3575,
    "ChainId": 4936,
    "ChainName": "Tom Thumb Food & Pharmacy",
    "Label": "Tom Thumb Food & Pharmacy",
    "Address": "2301 Justin Rd",
    "Address2": "",
    "City": "Flower Mound",
    "PostalCode": 75028,
    "State": "TX",
    "Latitude": 33.0715675,
    "Longitude": -97.0638804
  },
  {
    "unique_id": "4936-0534ee1cfa16a34258f2f39bbfe1a88f-ab0407d4feac7a7c8f9f485000103309",
    "store_id": "",
    "StoreName": "Tom Thumb",
    "StoreNumber": 3652,
    "ChainId": 4936,
    "ChainName": "Tom Thumb Food & Pharmacy",
    "Label": "Tom Thumb Food & Pharmacy",
    "Address": "745 Cross Timbers Rd",
    "Address2": "",
    "City": "Flower Mound",
    "PostalCode": 75028,
    "State": "TX",
    "Latitude": 33.0410697,
    "Longitude": -97.0381098
  },
  {
    "unique_id": "4936-54e7398e4e8c6247ad5564edd0dce9c3-38bc7b610e813eedf5a05c5b1039c043",
    "store_id": "",
    "StoreName": "Tom Thumb",
    "StoreNumber": 2588,
    "ChainId": 4936,
    "ChainName": "Tom Thumb Food & Pharmacy",
    "Label": "Tom Thumb Food & Pharmacy",
    "Address": "820 S Macarthur Blvd",
    "Address2": "",
    "City": "Coppell",
    "PostalCode": 75019,
    "State": "TX",
    "Latitude": 32.9513447,
    "Longitude": -96.9557451
  },
  {
    "unique_id": "4936-6deeda281e04bdb8134be577d3ad9d82-774c53bc0d497c506008d7f06186a733",
    "store_id": "",
    "StoreName": "Tom Thumb Express",
    "StoreNumber": 3311,
    "ChainId": 4936,
    "ChainName": "Tom Thumb Food & Pharmacy",
    "Label": "Tom Thumb Food & Pharmacy",
    "Address": "2720 Live Oak St",
    "Address2": "",
    "City": "Dallas",
    "PostalCode": 75204,
    "State": "TX",
    "Latitude": 32.78900809,
    "Longitude": -96.78856195
  },
  {
    "unique_id": "4936-202217dfe511676392dbf70f6d320bc6-2f85533f05f7b6970c68aae0b78afed7",
    "store_id": "",
    "StoreName": "Tom Thumb",
    "StoreNumber": 3569,
    "ChainId": 4936,
    "ChainName": "Tom Thumb Food & Pharmacy",
    "Label": "Tom Thumb Food & Pharmacy",
    "Address": "3878 Oaklawn Ave #180",
    "Address2": "",
    "City": "Dallas",
    "PostalCode": 75219,
    "State": "TX",
    "Latitude": 32.8156223,
    "Longitude": -96.8007853
  },
  {
    "unique_id": "4936-14b8faf8486e3902338f80d9761c57e9-7738525adf73a5119659f96e71de9a47",
    "store_id": "",
    "StoreName": "Tom Thumb",
    "StoreNumber": 2990,
    "ChainId": 4936,
    "ChainName": "Tom Thumb Food & Pharmacy",
    "Label": "Tom Thumb Food & Pharmacy",
    "Address": "7117 Inwood Rd",
    "Address2": "",
    "City": "Dallas",
    "PostalCode": 75209,
    "State": "TX",
    "Latitude": 32.8444788,
    "Longitude": -96.822672
  },
  {
    "unique_id": "4936-fe7130730959968949d27cce73b74175-f5a55493ff905da5990129d4c840a24e",
    "store_id": "",
    "StoreName": "Tom Thumb",
    "StoreNumber": 1540,
    "ChainId": 4936,
    "ChainName": "Tom Thumb Food & Pharmacy",
    "Label": "Tom Thumb Food & Pharmacy",
    "Address": "3757 Forest Ln",
    "Address2": "",
    "City": "Dallas",
    "PostalCode": 75244,
    "State": "TX",
    "Latitude": 32.9107955,
    "Longitude": -96.8530347
  },
  {
    "unique_id": "4936-e7ee8b0e76c005f3b0334fe31bf60413-ac23e6b7c1eedb210fbe11b9bcfd5520",
    "store_id": "",
    "StoreName": "Tom Thumb",
    "StoreNumber": 2503,
    "ChainId": 4936,
    "ChainName": "Tom Thumb Food & Pharmacy",
    "Label": "Tom Thumb Food & Pharmacy",
    "Address": "4001 Villanova St",
    "Address2": "",
    "City": "Dallas",
    "PostalCode": 75225,
    "State": "TX",
    "Latitude": 32.86368,
    "Longitude": -96.802143
  },
  {
    "unique_id": "4936-880b66f903791a25df9a252a83de42ec-abc68614ea512c488181b8b50308afd9",
    "store_id": "",
    "StoreName": "Tom Thumb",
    "StoreNumber": 1973,
    "ChainId": 4936,
    "ChainName": "Tom Thumb Food & Pharmacy",
    "Label": "Tom Thumb Food & Pharmacy",
    "Address": "7000 Snider Plaza",
    "Address2": "",
    "City": "Dallas",
    "PostalCode": 75205,
    "State": "TX",
    "Latitude": 32.8504818,
    "Longitude": -96.7872542
  },
  {
    "unique_id": "4936-baba8eac0cbcbc43f8547a8c1eb9cb65-681198d02b1b0d1dea8efa435cc61b2f",
    "store_id": "",
    "StoreName": "Tom Thumb",
    "StoreNumber": 2643,
    "ChainId": 4936,
    "ChainName": "Tom Thumb Food & Pharmacy",
    "Label": "Tom Thumb Food & Pharmacy",
    "Address": "14280 Marsh Ln",
    "Address2": "",
    "City": "Addison",
    "PostalCode": 75001,
    "State": "TX",
    "Latitude": 32.93861,
    "Longitude": -96.8535823
  },
  {
    "unique_id": "4936-ede9790f91718db5a035ff65c71f4c40-21dccc94d52b841799834655c3cb0164",
    "store_id": "",
    "StoreName": "Tom Thumb",
    "StoreNumber": 3522,
    "ChainId": 4936,
    "ChainName": "Tom Thumb Food & Pharmacy",
    "Label": "Tom Thumb Food & Pharmacy",
    "Address": "522 Royal Ln",
    "Address2": "",
    "City": "Dallas",
    "PostalCode": 75230,
    "State": "TX",
    "Latitude": 32.896347,
    "Longitude": -96.8049239
  },
  {
    "unique_id": "4936-2c87bef01f425848870aabe77a3d9b97-4df1f0184b2ccd9c29de00c4357f41a8",
    "store_id": "",
    "StoreName": "Tom Thumb",
    "StoreNumber": 2642,
    "ChainId": 4936,
    "ChainName": "Tom Thumb Food & Pharmacy",
    "Label": "Tom Thumb Food & Pharmacy",
    "Address": "5809 E Lovers Ln",
    "Address2": "",
    "City": "Dallas",
    "PostalCode": 75206,
    "State": "TX",
    "Latitude": 32.8522754,
    "Longitude": -96.767102
  },
  {
    "unique_id": "4936-b6da4856783830d94b315398f96a98ab-27561c93e8544833b0e00141e3ea330b",
    "store_id": "",
    "StoreName": "Tom Thumb",
    "StoreNumber": 2534,
    "ChainId": 4936,
    "ChainName": "Tom Thumb Food & Pharmacy",
    "Label": "Tom Thumb Food & Pharmacy",
    "Address": "6333 E Mockingbird Ln",
    "Address2": "",
    "City": "Dallas",
    "PostalCode": 75214,
    "State": "TX",
    "Latitude": 32.8377363,
    "Longitude": -96.7544581
  },
  {
    "unique_id": "4936-55584751071ca9ce432c22869fe354c4-f8cdf300983c46f3c5ac2e36145144b9",
    "store_id": "",
    "StoreName": "Tom Thumb",
    "StoreNumber": 3608,
    "ChainId": 4936,
    "ChainName": "Tom Thumb Food & Pharmacy",
    "Label": "Tom Thumb Food & Pharmacy",
    "Address": "7700 Northwest Hwy",
    "Address2": "",
    "City": "Dallas",
    "PostalCode": 75225,
    "State": "TX",
    "Latitude": 32.8641153,
    "Longitude": -96.7750293
  },
  {
    "unique_id": "4936-699dd5b98f60d760e48b568437cac266-1e994a5a0b076869d13a1b3b2a3a6f0e",
    "store_id": "",
    "StoreName": "Tom Thumb",
    "StoreNumber": 3570,
    "ChainId": 4936,
    "ChainName": "Tom Thumb Food & Pharmacy",
    "Label": "Tom Thumb Food & Pharmacy",
    "Address": "7331 Gaston Ave",
    "Address2": "",
    "City": "Dallas",
    "PostalCode": 75214,
    "State": "TX",
    "Latitude": 32.8131589,
    "Longitude": -96.729928
  },
  {
    "unique_id": "4936-19a70c4a07cf7d582fa6ddfd82d21f06-e32134098d4f9ae18e3e8a651f0bc607",
    "store_id": "",
    "StoreName": "Tom Thumb",
    "StoreNumber": 3597,
    "ChainId": 4936,
    "ChainName": "Tom Thumb Food & Pharmacy",
    "Label": "Tom Thumb Food & Pharmacy",
    "Address": "11920 Preston Rd",
    "Address2": "",
    "City": "Dallas",
    "PostalCode": 75230,
    "State": "TX",
    "Latitude": 32.9109453,
    "Longitude": -96.8020679
  },
  {
    "unique_id": "4936-4c18fa9dbc63934115506bf4c925ee89-9b29695f51c5fc7a03126927be22bb6f",
    "store_id": "",
    "StoreName": "Tom Thumb",
    "StoreNumber": 2590,
    "ChainId": 4936,
    "ChainName": "Tom Thumb Food & Pharmacy",
    "Label": "Tom Thumb Food & Pharmacy",
    "Address": "4112 N Josey",
    "Address2": "",
    "City": "Carrollton",
    "PostalCode": 75007,
    "State": "TX",
    "Latitude": 33.0235029,
    "Longitude": -96.8832886
  },
  {
    "unique_id": "4936-85a3c5fc15d28b8f15ff28f4842c8f06-8f6de74df503caf816569fcdd46347fd",
    "store_id": "",
    "StoreName": "Tom Thumb",
    "StoreNumber": 2544,
    "ChainId": 4936,
    "ChainName": "Tom Thumb Food & Pharmacy",
    "Label": "Tom Thumb Food & Pharmacy",
    "Address": "10455 N Central Expwy",
    "Address2": "",
    "City": "Dallas",
    "PostalCode": 75231,
    "State": "TX",
    "Latitude": 32.8888906,
    "Longitude": -96.771865
  },
  {
    "unique_id": "4936-736acdd1f99940e9420aa36ec4887b82-761b6c06dfbf237e8c641ec5c4bee505",
    "store_id": "",
    "StoreName": "Tom Thumb",
    "StoreNumber": 3650,
    "ChainId": 4936,
    "ChainName": "Tom Thumb Food & Pharmacy",
    "Label": "Tom Thumb Food & Pharmacy",
    "Address": "14999 Preston Rd",
    "Address2": "",
    "City": "Dallas",
    "PostalCode": 75254,
    "State": "TX",
    "Latitude": 32.9526242,
    "Longitude": -96.8051992
  },
  {
    "unique_id": "4936-062e875c4c3e744caf57ea772fd63ef6-4e07565eeae6fb782d4916f950cf8c4a",
    "store_id": "",
    "StoreName": "Tom Thumb",
    "StoreNumber": 3560,
    "ChainId": 4936,
    "ChainName": "Tom Thumb Food & Pharmacy",
    "Label": "Tom Thumb Food & Pharmacy",
    "Address": "8698 Skillman St",
    "Address2": "",
    "City": "Dallas",
    "PostalCode": 75243,
    "State": "TX",
    "Latitude": 32.8961377,
    "Longitude": -96.7204437
  },
  {
    "unique_id": "4936-56946eae047c0f0f5b1254396305cbef-b50ef941684e8b3076d273806cc5af08",
    "store_id": "",
    "StoreName": "Tom Thumb",
    "StoreNumber": 2570,
    "ChainId": 4936,
    "ChainName": "Tom Thumb Food & Pharmacy",
    "Label": "Tom Thumb Food & Pharmacy",
    "Address": "5968 W Parker Rd",
    "Address2": "",
    "City": "Plano",
    "PostalCode": 75093,
    "State": "TX",
    "Latitude": 33.0429876,
    "Longitude": -96.8286085
  },
  {
    "unique_id": "4936-2749ac939d2919d10e4bb968218df1d9-8d45854414e3f1957a68ea6212e10e0f",
    "store_id": "",
    "StoreName": "Tom Thumb",
    "StoreNumber": 3582,
    "ChainId": 4936,
    "ChainName": "Tom Thumb Food & Pharmacy",
    "Label": "Tom Thumb Food & Pharmacy",
    "Address": "18212 Preston Rd",
    "Address2": "",
    "City": "Dallas",
    "PostalCode": 75252,
    "State": "TX",
    "Latitude": 32.9997743,
    "Longitude": -96.7936197
  },
  {
    "unique_id": "4936-0699fb5e50c5b14f9a84ae36e41088bd-cd4e27932bef0ea7c7123def2fbfc055",
    "store_id": "",
    "StoreName": "Tom Thumb",
    "StoreNumber": 2963,
    "ChainId": 4936,
    "ChainName": "Tom Thumb Food & Pharmacy",
    "Label": "Tom Thumb Food & Pharmacy",
    "Address": "5550 FM 423",
    "Address2": "",
    "City": "Frisco",
    "PostalCode": 75034,
    "State": "TX",
    "Latitude": 33.125459,
    "Longitude": -96.8887763
  },
  {
    "unique_id": "4936-7e7608d2bb62a5c2c2fda991790a09e6-c8a6522a9b0e48fde2b87e3deb14c3e4",
    "store_id": "",
    "StoreName": "Tom Thumb",
    "StoreNumber": 1784,
    "ChainId": 4936,
    "ChainName": "Tom Thumb Food & Pharmacy",
    "Label": "Tom Thumb Food & Pharmacy",
    "Address": "1501 Pioneer Rd",
    "Address2": "",
    "City": "Mesquite",
    "PostalCode": 75149,
    "State": "TX",
    "Latitude": 32.7460774,
    "Longitude": -96.586242
  },
  {
    "unique_id": "4936-023cab0148fc659b9ef7808f0d62e0fc-7c7cf55c38244c0cdca8dfeaa2d87fa4",
    "store_id": "",
    "StoreName": "Tom Thumb",
    "StoreNumber": 3637,
    "ChainId": 4936,
    "ChainName": "Tom Thumb Food & Pharmacy",
    "Label": "Tom Thumb Food & Pharmacy",
    "Address": "1380 W Campbell Rd",
    "Address2": "",
    "City": "Richardson",
    "PostalCode": 75080,
    "State": "TX",
    "Latitude": 32.9800845,
    "Longitude": -96.7668898
  },
  {
    "unique_id": "4936-aec3c1c2478f8a3123076e427c79dc6a-8c46a365e860dd945488d737d21e5e40",
    "store_id": "",
    "StoreName": "Tom Thumb",
    "StoreNumber": 2526,
    "ChainId": 4936,
    "ChainName": "Tom Thumb Food & Pharmacy",
    "Label": "Tom Thumb Food & Pharmacy",
    "Address": "819 Arapaho Rd",
    "Address2": "",
    "City": "Richardson",
    "PostalCode": 75080,
    "State": "TX",
    "Latitude": 32.9613445,
    "Longitude": -96.74983
  },
  {
    "unique_id": "4936-479d392e0412d4c59a990ff2ceda5496-ba6def903c457810f794b3a493fdac3b",
    "store_id": "",
    "StoreName": "Tom Thumb",
    "StoreNumber": 2561,
    "ChainId": 4936,
    "ChainName": "Tom Thumb Food & Pharmacy",
    "Label": "Tom Thumb Food & Pharmacy",
    "Address": "925 N West Hwy",
    "Address2": "",
    "City": "Garland",
    "PostalCode": 75041,
    "State": "TX",
    "Latitude": 32.862851,
    "Longitude": -96.6417048
  },
  {
    "unique_id": "4936-8d5f61bfd3de42432148a86b4fc17087-6022ea819db34ba4d93c56e96d9e1ac2",
    "store_id": "",
    "StoreName": "Tom Thumb",
    "StoreNumber": 3641,
    "ChainId": 4936,
    "ChainName": "Tom Thumb Food & Pharmacy",
    "Label": "Tom Thumb Food & Pharmacy",
    "Address": "3411 Custer Pkwy",
    "Address2": "",
    "City": "Richardson",
    "PostalCode": 75080,
    "State": "TX",
    "Latitude": 32.9987729,
    "Longitude": -96.7306361
  },
  {
    "unique_id": "4936-87b0d22d338e93fcf995160d39b6b2eb-bbc0190d600106fecd63923e1722e7e5",
    "store_id": "",
    "StoreName": "Tom Thumb",
    "StoreNumber": 2554,
    "ChainId": 4936,
    "ChainName": "Tom Thumb Food & Pharmacy",
    "Label": "Tom Thumb Food & Pharmacy",
    "Address": "3100 Independence Pkwy",
    "Address2": "",
    "City": "Plano",
    "PostalCode": 75075,
    "State": "TX",
    "Latitude": 33.0390957,
    "Longitude": -96.7523405
  },
  {
    "unique_id": "4936-e8930155f5498c08476ea6f96e6ebb22-e7fca536416e624fbf481c27532e8ff0",
    "store_id": "",
    "StoreName": "Tom Thumb",
    "StoreNumber": 2595,
    "ChainId": 4936,
    "ChainName": "Tom Thumb Food & Pharmacy",
    "Label": "Tom Thumb Food & Pharmacy",
    "Address": "3945 Legacy Dr",
    "Address2": "",
    "City": "Plano",
    "PostalCode": 75023,
    "State": "TX",
    "Latitude": 33.0740633,
    "Longitude": -96.7706117
  },
  {
    "unique_id": "4936-13eab9b763e1700f536390a1d14788f5-974ba62f78bf95bac823d054089f4532",
    "store_id": "",
    "StoreName": "Tom Thumb",
    "StoreNumber": 2581,
    "ChainId": 4936,
    "ChainName": "Tom Thumb Food & Pharmacy",
    "Label": "Tom Thumb Food & Pharmacy",
    "Address": "4848 Preston Rd",
    "Address2": "",
    "City": "Frisco",
    "PostalCode": 75034,
    "State": "TX",
    "Latitude": 33.1189121,
    "Longitude": -96.8037772
  },
  {
    "unique_id": "4936-402475ce6494cd0f99c66542353722f6-bded81b0cd1f9740be05f5a6202bb1c4",
    "store_id": "",
    "StoreName": "Tom Thumb",
    "StoreNumber": 1783,
    "ChainId": 4936,
    "ChainName": "Tom Thumb Food & Pharmacy",
    "Label": "Tom Thumb Food & Pharmacy",
    "Address": "2645 Arapaho Rd",
    "Address2": "",
    "City": "Garland",
    "PostalCode": 75044,
    "State": "TX",
    "Latitude": 32.960838,
    "Longitude": -96.6669435
  },
  {
    "unique_id": "4936-cf21d32c8bca1c810b3a3e2ce7c728fa-5f00a233f86315a1bcb22642750a4ea6",
    "store_id": "",
    "StoreName": "Tom Thumb",
    "StoreNumber": 3645,
    "ChainId": 4936,
    "ChainName": "Tom Thumb Food & Pharmacy",
    "Label": "Tom Thumb Food & Pharmacy",
    "Address": "2200 E 14th St",
    "Address2": "",
    "City": "Plano",
    "PostalCode": 75074,
    "State": "TX",
    "Latitude": 33.0167052,
    "Longitude": -96.6834788
  },
  {
    "unique_id": "4936-17c7a110f1481687a123e41010ed043c-1b201226415aabda98aa9a51cb768e83",
    "store_id": "",
    "StoreName": "Tom Thumb",
    "StoreNumber": 2578,
    "ChainId": 4936,
    "ChainName": "Tom Thumb Food & Pharmacy",
    "Label": "Tom Thumb Food & Pharmacy",
    "Address": "2535 Firewheel Pkwy",
    "Address2": "",
    "City": "Garland",
    "PostalCode": 75040,
    "State": "TX",
    "Latitude": 32.9374184,
    "Longitude": -96.6055191
  },
  {
    "unique_id": "4936-ba19cd90b9c57bb31a8386a463664e76-948bf345cfafadf3a78a116699b94284",
    "store_id": "",
    "StoreName": "Tom Thumb",
    "StoreNumber": 1788,
    "ChainId": 4936,
    "ChainName": "Tom Thumb Food & Pharmacy",
    "Label": "Tom Thumb Food & Pharmacy",
    "Address": "7801 Alma Dr",
    "Address2": "",
    "City": "Plano",
    "PostalCode": 75025,
    "State": "TX",
    "Latitude": 33.0832042,
    "Longitude": -96.7137972
  },
  {
    "unique_id": "4936-0a4aa21c57fd0c2a013ae6a06cb5faf0-5adbfbcef63d74d5c531eb4f786637cc",
    "store_id": "",
    "StoreName": "Tom Thumb",
    "StoreNumber": 3579,
    "ChainId": 4936,
    "ChainName": "Tom Thumb Food & Pharmacy",
    "Label": "Tom Thumb Food & Pharmacy",
    "Address": "900 W McDermott Dr",
    "Address2": "",
    "City": "Allen",
    "PostalCode": 75013,
    "State": "TX",
    "Latitude": 33.1031,
    "Longitude": -96.6829564
  },
  {
    "unique_id": "4936-12c1db8f6d00152374b59f10e235d19d-9d59bc3a031df660c767caa8211e926b",
    "store_id": "",
    "StoreName": "Tom Thumb",
    "StoreNumber": 1925,
    "ChainId": 4936,
    "ChainName": "Tom Thumb Food & Pharmacy",
    "Label": "Tom Thumb Food & Pharmacy",
    "Address": "8805 Lakeview Pkwy",
    "Address2": "",
    "City": "Rowlett",
    "PostalCode": 75088,
    "State": "TX",
    "Latitude": 32.92048,
    "Longitude": -96.5163437
  },
  {
    "unique_id": "4936-d584f36c6a61fe8a498ae549052cbe6c-f2cc86177be6ace7afa26f90ccfd86a5",
    "store_id": "",
    "StoreName": "Tom Thumb",
    "StoreNumber": 296,
    "ChainId": 4936,
    "ChainName": "Tom Thumb Food & Pharmacy",
    "Label": "Tom Thumb Food & Pharmacy",
    "Address": "6800 W Virginia Pkwy",
    "Address2": "",
    "City": "McKinney",
    "PostalCode": 75071,
    "State": "TX",
    "Latitude": 33.2005172,
    "Longitude": -96.7063768
  },
  {
    "unique_id": "4936-a021fb7c5faebe4b162bdffb8c95d84a-6e106bf17843567431c5ccafdb2bdd0d",
    "store_id": "",
    "StoreName": "Tom Thumb",
    "StoreNumber": 4239,
    "ChainId": 4936,
    "ChainName": "Tom Thumb Food & Pharmacy",
    "Label": "Tom Thumb Food & Pharmacy",
    "Address": "921 Westgate Way",
    "Address2": "",
    "City": "Wylie",
    "PostalCode": 75098,
    "State": "TX",
    "Latitude": 33.0064664,
    "Longitude": -96.5520679
  },
  {
    "unique_id": "4936-2a325a974f8db63170fb64c58ac163b7-f653fc4b31fba11403d6dbf0005f4831",
    "store_id": "",
    "StoreName": "Tom Thumb",
    "StoreNumber": 3853,
    "ChainId": 4936,
    "ChainName": "Tom Thumb Food & Pharmacy",
    "Label": "Tom Thumb Food & Pharmacy",
    "Address": "3001 Hardin Blvd",
    "Address2": "",
    "City": "McKinney",
    "PostalCode": 75070,
    "State": "TX",
    "Latitude": 33.1669663,
    "Longitude": -96.6631643
  },
  {
    "unique_id": "4936-977c84cdfa319f08bcd3a4d71e2d82f2-91ad955c31fb0e5df48bab2fd6d7109c",
    "store_id": "",
    "StoreName": "Tom Thumb",
    "StoreNumber": 2964,
    "ChainId": 4936,
    "ChainName": "Tom Thumb Food & Pharmacy",
    "Label": "Tom Thumb Food & Pharmacy",
    "Address": "3070 N Goliad St",
    "Address2": "",
    "City": "Rockwall",
    "PostalCode": 75087,
    "State": "TX",
    "Latitude": 32.964443,
    "Longitude": -96.4624282
  },
  {
    "unique_id": "6491-a5c45697b2397333ede9804f22cf9304-ffb4826effed0f6eace1f5a48451e50b",
    "store_id": "",
    "StoreName": "UNFI",
    "StoreNumber": "",
    "ChainId": 6491,
    "ChainName": "UNFI (United Natural Foods)",
    "Label": "UNFI (United Natural Foods)",
    "Address": "2100 Danieldale Road",
    "Address2": "",
    "City": "Lancaster",
    "PostalCode": 75134,
    "State": "TX",
    "Latitude": 32.6381159,
    "Longitude": -96.7987628
  },
  {
    "unique_id": "5227-219577634bdfb30434c06a642b2ee1d7-687a6a0e4d1c2f455b6f39fa4dc70499",
    "store_id": "",
    "StoreName": "Walmart Supercenter",
    "StoreNumber": 371,
    "ChainId": 5227,
    "ChainName": "Walmart USA",
    "Label": "Walmart",
    "Address": "735 E Highway 377",
    "Address2": "",
    "City": "Granbury",
    "PostalCode": 76048,
    "State": "TX",
    "Latitude": 32.432088,
    "Longitude": -97.780249
  },
  {
    "unique_id": "5227-0df4f6b05c64c622ecd413f0e78cef90-b203b2d14cc116106cf9a6193bd39390",
    "store_id": "",
    "StoreName": "Walmart Supercenter",
    "StoreNumber": 284,
    "ChainId": 5227,
    "ChainName": "Walmart USA",
    "Label": "Walmart",
    "Address": "930 N Walnut Creek Dr Ste 800",
    "Address2": "",
    "City": "Mansfield",
    "PostalCode": 76063,
    "State": "TX",
    "Latitude": 32.5761491,
    "Longitude": -97.1306777
  },
  {
    "unique_id": "5227-14eefb4d6e14a8892f088a5a48ba831e-02dc340eca66e829610e4138b0198672",
    "store_id": "",
    "StoreName": "Walmart Supercenter",
    "StoreNumber": 896,
    "ChainId": 5227,
    "ChainName": "Walmart USA",
    "Label": "Walmart",
    "Address": "2225 W Interstate 20",
    "Address2": "",
    "City": "Grand Prairie",
    "PostalCode": 75052,
    "State": "TX",
    "Latitude": 32.673372,
    "Longitude": -97.036269
  },
  {
    "unique_id": "5227-2b5f95ea2b4025554ab82c68c0c37f72-5e368273eaee2692667a19014eadd8bc",
    "store_id": "",
    "StoreName": "Walmart Supercenter",
    "StoreNumber": 427,
    "ChainId": 5227,
    "ChainName": "Walmart USA",
    "Label": "Walmart",
    "Address": "7401 Interstate Highway 30",
    "Address2": "",
    "City": "Greenville",
    "PostalCode": 75402,
    "State": "TX",
    "Latitude": 33.0936032,
    "Longitude": -96.1062961
  },
  {
    "unique_id": "5227-7d27bf723c8b7791b567956f3151d765-b84c15f56e75c24d1bc82754ec4a03c2",
    "store_id": "",
    "StoreName": "Walmart Supercenter",
    "StoreNumber": 240,
    "ChainId": 5227,
    "ChainName": "Walmart USA",
    "Label": "Walmart",
    "Address": "2701 State Highway 50",
    "Address2": "",
    "City": "Commerce",
    "PostalCode": 75428,
    "State": "TX",
    "Latitude": 33.235117,
    "Longitude": -95.914805
  },
  {
    "unique_id": "5227-d8ff0171205e6c6fd1b5839cb0d5702a-a26b9aa0f9b014f6c3593c65d35abb80",
    "store_id": "",
    "StoreName": "Walmart",
    "StoreNumber": 263,
    "ChainId": 5227,
    "ChainName": "Walmart USA",
    "Label": "Walmart",
    "Address": "Tba 263",
    "Address2": "",
    "City": "Frisco",
    "PostalCode": 75034,
    "State": "TX",
    "Latitude": 33.2162,
    "Longitude": -96.8777
  },
  {
    "unique_id": "5227-dc96995ebadd0abb5c91a3ccd2f7bae5-6e680fbbb47a0ce54a2f07418aa1c8db",
    "store_id": "",
    "StoreName": "Walmart Supercenter",
    "StoreNumber": 3285,
    "ChainId": 5227,
    "ChainName": "Walmart USA",
    "Label": "Walmart",
    "Address": "621 Uptown Blvd",
    "Address2": "",
    "City": "Cedar Hill",
    "PostalCode": 75104,
    "State": "TX",
    "Latitude": 32.5974516,
    "Longitude": -96.9470926
  },
  {
    "unique_id": "5227-32fcb1b5d5692140e1853bd357c704a0-38eea3352f3b1ea05160456a113a6294",
    "store_id": "",
    "StoreName": "Walmart Supercenter",
    "StoreNumber": 5810,
    "ChainId": 5227,
    "ChainName": "Walmart USA",
    "Label": "Walmart",
    "Address": "7075 W Wheatland Rd",
    "Address2": "",
    "City": "Dallas",
    "PostalCode": 75249,
    "State": "TX",
    "Latitude": 32.6495964,
    "Longitude": -96.9444103
  },
  {
    "unique_id": "5227-5e6ae80aece7397083b2d13289f86336-9c16dab8c819a1ea154886d44122a416",
    "store_id": "",
    "StoreName": "Walmart Supercenter",
    "StoreNumber": 2427,
    "ChainId": 5227,
    "ChainName": "Walmart USA",
    "Label": "Walmart",
    "Address": "9301 Forest Ln",
    "Address2": "",
    "City": "Dallas",
    "PostalCode": 75243,
    "State": "TX",
    "Latitude": 32.9107202,
    "Longitude": -96.738514
  },
  {
    "unique_id": "5227-68bfeb421cbd4a2d209084af802e2ff6-6e503547ac72ea957692c8be08a35418",
    "store_id": "",
    "StoreName": "Walmart Supercenter",
    "StoreNumber": 3432,
    "ChainId": 5227,
    "ChainName": "Walmart USA",
    "Label": "Walmart",
    "Address": "951 W Belt Line Rd",
    "Address2": "",
    "City": "Desoto",
    "PostalCode": 75115,
    "State": "TX",
    "Latitude": 32.592753,
    "Longitude": -96.879837
  },
  {
    "unique_id": "5227-363cbd178a18dfbc4921148c9a9213b3-fcddef087cb2cb32b455ae13ca84bad0",
    "store_id": "",
    "StoreName": "Walmart Supercenter",
    "StoreNumber": 949,
    "ChainId": 5227,
    "ChainName": "Walmart USA",
    "Label": "Walmart",
    "Address": "3155 W Wheatland Rd",
    "Address2": "",
    "City": "Dallas",
    "PostalCode": 75237,
    "State": "TX",
    "Latitude": 32.6496135,
    "Longitude": -96.8725574
  },
  {
    "unique_id": "5227-e8589d8647444fb82f24c1e437915bc4-cc2214db6aade72018517d2a16056f49",
    "store_id": "",
    "StoreName": "Walmart Supercenter",
    "StoreNumber": 3433,
    "ChainId": 5227,
    "ChainName": "Walmart USA",
    "Label": "Walmart",
    "Address": "100 Ryan Drive",
    "Address2": "",
    "City": "Red Oak",
    "PostalCode": 75154,
    "State": "TX",
    "Latitude": 32.5342423,
    "Longitude": -96.815866
  },
  {
    "unique_id": "5227-3d1eb84a21a0e2372bddc929d21bcfaa-0e738e7568043c0417989dac845e6d9b",
    "store_id": "",
    "StoreName": "Walmart Supercenter",
    "StoreNumber": 471,
    "ChainId": 5227,
    "ChainName": "Walmart USA",
    "Label": "Walmart",
    "Address": "150 N Interstate 35 E",
    "Address2": "",
    "City": "Lancaster",
    "PostalCode": 75146,
    "State": "TX",
    "Latitude": 32.5921318,
    "Longitude": -96.8193152
  },
  {
    "unique_id": "5227-f110c2ecf0190b0b12a6b15f059d650b-bb55078de59400ff9367b047093bdaed",
    "store_id": "",
    "StoreName": "Walmart Supercenter",
    "StoreNumber": 3014,
    "ChainId": 5227,
    "ChainName": "Walmart USA",
    "Label": "Walmart",
    "Address": "200 Short Blvd",
    "Address2": "",
    "City": "Dallas",
    "PostalCode": 75232,
    "State": "TX",
    "Latitude": 32.683773,
    "Longitude": -96.825499
  },
  {
    "unique_id": "5227-e827777119b111a6d27fb32aedf7f48c-90097d0b0ca0806334635293beddcfa8",
    "store_id": "",
    "StoreName": "Walmart Supercenter",
    "StoreNumber": 5191,
    "ChainId": 5227,
    "ChainName": "Walmart USA",
    "Label": "Walmart",
    "Address": "802 E Us Highway 80",
    "Address2": "",
    "City": "Forney",
    "PostalCode": 75126,
    "State": "TX",
    "Latitude": 32.745312,
    "Longitude": -96.445649
  },
  {
    "unique_id": "5227-73bf6e00b4206e5c14f055630576b24f-46710d153e469b0d29dfe5202100027e",
    "store_id": "",
    "StoreName": "Neighborhood Market",
    "StoreNumber": 5824,
    "ChainId": 5227,
    "ChainName": "Walmart USA",
    "Label": "Walmart",
    "Address": "1951 Military Parkway",
    "Address2": "",
    "City": "Mesquite",
    "PostalCode": 75149,
    "State": "TX",
    "Latitude": 32.7692944,
    "Longitude": -96.6280473
  },
  {
    "unique_id": "5227-852affd2de3bbdcd4b1ea8743e4f2d4f-23069632d3d254ee873c47cc41d216c7",
    "store_id": "",
    "StoreName": "Walmart Supercenter",
    "StoreNumber": 1801,
    "ChainId": 5227,
    "ChainName": "Walmart USA",
    "Label": "Walmart",
    "Address": "4801 S Cooper St",
    "Address2": "",
    "City": "Arlington",
    "PostalCode": 76017,
    "State": "TX",
    "Latitude": 32.668731,
    "Longitude": -97.131835
  },
  {
    "unique_id": "5227-f2cc3767f7220365c5a747101f85c1bb-9a5ec6d1fe8551887967bfe76931f0a1",
    "store_id": "",
    "StoreName": "Walmart Supercenter",
    "StoreNumber": 590,
    "ChainId": 5227,
    "ChainName": "Walmart USA",
    "Label": "Walmart",
    "Address": "6300 Oakmont Blvd",
    "Address2": "",
    "City": "Fort Worth",
    "PostalCode": 76132,
    "State": "TX",
    "Latitude": 32.664578,
    "Longitude": -97.405724
  },
  {
    "unique_id": "5227-7eb96aaf7a181c840a140ca2f9441429-f06656405b98c5b86bdfac901b99de04",
    "store_id": "",
    "StoreName": "Walmart Supercenter",
    "StoreNumber": 2649,
    "ChainId": 5227,
    "ChainName": "Walmart USA",
    "Label": "Walmart",
    "Address": "1635 Market Place Blvd.",
    "Address2": "",
    "City": "Irving",
    "PostalCode": 75063,
    "State": "TX",
    "Latitude": 32.9204367,
    "Longitude": -96.9675727
  },
  {
    "unique_id": "5227-34b1da159a99a848d757e576b92fe666-9c2364bc49d8706107b6ee6af0a4fb1f",
    "store_id": "",
    "StoreName": "Walmart Supercenter",
    "StoreNumber": 940,
    "ChainId": 5227,
    "ChainName": "Walmart USA",
    "Label": "Walmart",
    "Address": "6770 Westworth Blvd",
    "Address2": "",
    "City": "Westworth Village",
    "PostalCode": 76114,
    "State": "TX",
    "Latitude": 32.755043,
    "Longitude": -97.433927
  },
  {
    "unique_id": "5227-599981e890a4655b5caa05e66178590a-641382a5b4430d0ef8fc0505a7944d2b",
    "store_id": "",
    "StoreName": "Walmart Supercenter",
    "StoreNumber": 5359,
    "ChainId": 5227,
    "ChainName": "Walmart USA",
    "Label": "Walmart",
    "Address": "721 Boyd Rd",
    "Address2": "",
    "City": "Azle",
    "PostalCode": 76020,
    "State": "TX",
    "Latitude": 32.904316,
    "Longitude": -97.546277
  },
  {
    "unique_id": "5227-c328a1af6dbec7d92cacd5bf118b3dc1-9dc4a1fefd8917742cc6dbd054207fc1",
    "store_id": "",
    "StoreName": "Walmart Supercenter",
    "StoreNumber": 1178,
    "ChainId": 5227,
    "ChainName": "Walmart USA",
    "Label": "Walmart",
    "Address": "4101 Highway 121",
    "Address2": "",
    "City": "Bedford",
    "PostalCode": 76021,
    "State": "TX",
    "Latitude": 32.8638064,
    "Longitude": -97.1057095
  },
  {
    "unique_id": "5227-f418121b75909f1cc85abcc123ad1621-cdddbf22d88ce442896bdbbf989952bf",
    "store_id": "",
    "StoreName": "Walmart Supercenter",
    "StoreNumber": 5316,
    "ChainId": 5227,
    "ChainName": "Walmart USA",
    "Label": "Walmart",
    "Address": "1401 N Saginaw Blvd",
    "Address2": "",
    "City": "Saginaw",
    "PostalCode": 76179,
    "State": "TX",
    "Latitude": 32.882514,
    "Longitude": -97.386969
  },
  {
    "unique_id": "5227-2d25198f705bca83aabf979abf7607ac-34704120d2e29406f097acd9984f81c7",
    "store_id": "",
    "StoreName": "Neighborhood Market",
    "StoreNumber": 2981,
    "ChainId": 5227,
    "ChainName": "Walmart USA",
    "Label": "Walmart",
    "Address": "2130 Rufe Snow Dr",
    "Address2": "",
    "City": "Keller",
    "PostalCode": 76248,
    "State": "TX",
    "Latitude": 32.893363,
    "Longitude": -97.24002
  },
  {
    "unique_id": "5227-50bfc8ee0ec6527e3da03131859f02a9-3b867a35c3411b961143a69ca0777fdf",
    "store_id": "",
    "StoreName": "Walmart Supercenter",
    "StoreNumber": 2834,
    "ChainId": 5227,
    "ChainName": "Walmart USA",
    "Label": "Walmart",
    "Address": "5336 Golden Triangle Boulevard",
    "Address2": "",
    "City": "Fort Worth",
    "PostalCode": 76244,
    "State": "TX",
    "Latitude": 32.9325651,
    "Longitude": -97.2692007
  },
  {
    "unique_id": "6784-e5d8db9e918b75fa2da8ec8f01066c0c-a817cc11b325be1106d1c554ff4c5911",
    "store_id": "",
    "StoreName": "Convenience with Fuel",
    "StoreNumber": 245,
    "ChainId": 6784,
    "ChainName": "Walmart Gas Stations",
    "Label": "Walmart Gas Stations",
    "Address": "1301 E. Fm 1187",
    "Address2": "",
    "City": "Crowley",
    "PostalCode": 76036,
    "State": "TX",
    "Latitude": 32.5764827,
    "Longitude": -97.3362959
  },
  {
    "unique_id": "6784-70ab9fcbd9f7cda4c5bf62d9af7bc027-b3ccf168b4fc6521bdc791f857348737",
    "store_id": "",
    "StoreName": "Convenience with Fuel",
    "StoreNumber": 997,
    "ChainId": 6784,
    "ChainName": "Walmart Gas Stations",
    "Label": "Walmart Gas Stations",
    "Address": "6040 Coit Road",
    "Address2": "",
    "City": "Plano",
    "PostalCode": 75023,
    "State": "TX",
    "Latitude": 33.0552187,
    "Longitude": -96.7698101
  },
  {
    "unique_id": "6783-b7d2d1b062d6e509bec065c44a2e381e-621c9e60c19d5247464924bc7d999b1b",
    "store_id": "",
    "StoreName": "Clinic Pharmacy",
    "StoreNumber": 7261,
    "ChainId": 6783,
    "ChainName": "Walmart Pharmacy",
    "Label": "Walmart Pharmacy",
    "Address": "6565 Headquarters Dr",
    "Address2": "",
    "City": "Plano",
    "PostalCode": 75024,
    "State": "TX",
    "Latitude": 33.083,
    "Longitude": -96.842
  },
  {
    "unique_id": "6783-79952052089fd410225707654574bb3e-689bba0c72e1827741c785439559ef59",
    "store_id": "",
    "StoreName": "Clinic Pharmacy",
    "StoreNumber": 2625,
    "ChainId": 6783,
    "ChainName": "Walmart Pharmacy",
    "Label": "Walmart Pharmacy",
    "Address": "1025 West Trinity Mills Mail",
    "Address2": "",
    "City": "Carrollton",
    "PostalCode": 75006,
    "State": "TX",
    "Latitude": 32.981064,
    "Longitude": -96.912074
  },
  {
    "unique_id": "5295-8d5ff9c07ec5ac21a87c10ca37450dc7-d8c28f84e510508de788b288dacbfdb4",
    "store_id": "",
    "StoreName": "Forest",
    "StoreNumber": "",
    "ChainId": 5295,
    "ChainName": "Whole Foods Market",
    "Label": "Whole Foods Market",
    "Address": "11700 Preston Rd",
    "Address2": "",
    "City": "Dallas",
    "PostalCode": 75230,
    "State": "TX",
    "Latitude": 32.9076088,
    "Longitude": -96.8032494
  },
  {
    "unique_id": "5295-37f45e5bac148da34f8f95938a6fc14d-6b52a38edbb78cf954fd28eacb9fe4cf",
    "store_id": "",
    "StoreName": "Lakewood",
    "StoreNumber": "",
    "ChainId": 5295,
    "ChainName": "Whole Foods Market",
    "Label": "Whole Foods Market",
    "Address": "2118 Abrams Road",
    "Address2": "",
    "City": "Dallas",
    "PostalCode": 75214,
    "State": "TX",
    "Latitude": 32.8158244,
    "Longitude": -96.752273
  },
  {
    "unique_id": "5295-24f54ed7cca8db2bc7357ed368c506e2-7225f19fe9b8c560c299921dbb9518e6",
    "store_id": "",
    "StoreName": "Cityline",
    "StoreNumber": "",
    "ChainId": 5295,
    "ChainName": "Whole Foods Market",
    "Label": "Whole Foods Market",
    "Address": "CityLine DFW",
    "Address2": "",
    "City": "Richardson",
    "PostalCode": 75082,
    "State": "TX",
    "Latitude": 32.9988408,
    "Longitude": -96.6987141
  },
  {
    "unique_id": "5295-96285224d55dcc96a2c51a7fe644ca92-04dbc8c0baea01fdb7adde276e914718",
    "store_id": "",
    "StoreName": "Arlington TX",
    "StoreNumber": "",
    "ChainId": 5295,
    "ChainName": "Whole Foods Market",
    "Label": "Whole Foods Market",
    "Address": "801 East Lamar Blvd.",
    "Address2": "",
    "City": "Arlington",
    "PostalCode": 76011,
    "State": "TX",
    "Latitude": 32.7668584,
    "Longitude": -97.0990638
  },
  {
    "unique_id": "5295-b2ccfdc02c3f7d047c2afbe3e1ed2d4b-441980ce0d1609845e7f2aca73210362",
    "store_id": "",
    "StoreName": "Plano",
    "StoreNumber": "",
    "ChainId": 5295,
    "ChainName": "Whole Foods Market",
    "Label": "Whole Foods Market",
    "Address": "2201 Preston Road",
    "Address2": "",
    "City": "Plano",
    "PostalCode": 75093,
    "State": "TX",
    "Latitude": 33.029668,
    "Longitude": -96.7968551
  },
  {
    "unique_id": "5295-e01ea6843c11e435ee19722c53d3ecff-61031bee2dad7f42fb4d21c748c15f8f",
    "store_id": "",
    "StoreName": "Park Lane",
    "StoreNumber": "",
    "ChainId": 5295,
    "ChainName": "Whole Foods Market",
    "Label": "Whole Foods Market",
    "Address": "8190 Park Lane, Suite 351",
    "Address2": "",
    "City": "Dallas",
    "PostalCode": 75231,
    "State": "TX",
    "Latitude": 32.868013,
    "Longitude": -96.7682698
  },
  {
    "unique_id": "5295-17ccefb12a35b83fb73241507e433c6e-37f2d3f9d0a8872929336fa5a54ea4e8",
    "store_id": "",
    "StoreName": "Las Colinas",
    "StoreNumber": "",
    "ChainId": 5295,
    "ChainName": "Whole Foods Market",
    "Label": "Whole Foods Market",
    "Address": "6741 N MacArthur Blvd",
    "Address2": "",
    "City": "Irving",
    "PostalCode": 75039,
    "State": "TX",
    "Latitude": 32.9012474,
    "Longitude": -96.9603215
  },
  {
    "unique_id": "5295-91758fb44bf48059e61bb7c110da59c3-81dd7fb4c75c0063b350e78beecbe941",
    "store_id": "",
    "StoreName": "Highland Village",
    "StoreNumber": "",
    "ChainId": 5295,
    "ChainName": "Whole Foods Market",
    "Label": "Whole Foods Market",
    "Address": "The Shops at Highland Village",
    "Address2": "",
    "City": "Highland Village",
    "PostalCode": 75077,
    "State": "TX",
    "Latitude": 33.072779,
    "Longitude": -97.0846925
  },
  {
    "unique_id": "5295-eb6736f13a401c2a35e5ae9ac9d369a1-9080969ea26921dac38b7682685c061b",
    "store_id": "",
    "StoreName": "Highland Park",
    "StoreNumber": "",
    "ChainId": 5295,
    "ChainName": "Whole Foods Market",
    "Label": "Whole Foods Market",
    "Address": "4100 Lomo Alto Dr",
    "Address2": "",
    "City": "Highland Park",
    "PostalCode": 75219,
    "State": "TX",
    "Latitude": 32.8204593,
    "Longitude": -96.8144446
  },
  {
    "unique_id": "5295-409085c23bdfe991953c8f34094c7ea6-58f92ff1fecc48da075aa555e26f44e4",
    "store_id": "",
    "StoreName": "Colleyville",
    "StoreNumber": "",
    "ChainId": 5295,
    "ChainName": "Whole Foods Market",
    "Label": "Whole Foods Market",
    "Address": "4801 Colleyville Blvd",
    "Address2": "",
    "City": "Colleyville",
    "PostalCode": 76034,
    "State": "TX",
    "Latitude": 32.8790865,
    "Longitude": -97.1554283
  },
  {
    "unique_id": "5295-472668d36d1f4770b6a681927f4b61f8-83f0d6100b1f46dcc03a36f227535665",
    "store_id": "",
    "StoreName": "Addison",
    "StoreNumber": "",
    "ChainId": 5295,
    "ChainName": "Whole Foods Market",
    "Label": "Whole Foods Market",
    "Address": "5100 Belt Line Road, Suite 1012",
    "Address2": "",
    "City": "Addison",
    "PostalCode": 75254,
    "State": "TX",
    "Latitude": 32.9530924,
    "Longitude": -96.8211579
  },
  {
    "unique_id": "5295-540ec87207119477afac72911bcc9001-b9535921697fe4bb814c902487ffe42d",
    "store_id": "",
    "StoreName": "Uptown Dallas",
    "StoreNumber": "",
    "ChainId": 5295,
    "ChainName": "Whole Foods Market",
    "Label": "Whole Foods Market",
    "Address": "2510 McKinney Ave",
    "Address2": "",
    "City": "Dallas",
    "PostalCode": 75201,
    "State": "TX",
    "Latitude": 32.795862,
    "Longitude": -96.801633
  },
  {
    "unique_id": "5295-0262663188d25c14ca4654288ebe25f4-ffc860c8dcdb4ce842fb2f7d881db668",
    "store_id": "",
    "StoreName": "Fort Worth",
    "StoreNumber": "",
    "ChainId": 5295,
    "ChainName": "Whole Foods Market",
    "Label": "Whole Foods Market",
    "Address": "3720 Vision Drive",
    "Address2": "",
    "City": "Fort Worth",
    "PostalCode": 76109,
    "State": "TX",
    "Latitude": 32.700062,
    "Longitude": -97.4132113
  },
  {
    "unique_id": "5295-499fd333c74d0fda70dfa213183bba79-774c0426951d48ac69c48c49b06ab9d0",
    "store_id": "",
    "StoreName": "Fairview",
    "StoreNumber": "",
    "ChainId": 5295,
    "ChainName": "Whole Foods Market",
    "Label": "Whole Foods Market",
    "Address": "Fairview Town Center",
    "Address2": "",
    "City": "Fairview",
    "PostalCode": 75069,
    "State": "TX",
    "Latitude": 33.131139,
    "Longitude": -96.656404
  },
  {
    "unique_id": "5320-d960409ac86cb35f09d75913f17401a6-206dadd63950ace8e52b07e67bf079c4",
    "store_id": "",
    "StoreName": "WinCo Foods - Carrollton",
    "StoreNumber": 146,
    "ChainId": 5320,
    "ChainName": "WinCo Foods",
    "Label": "WinCo Foods",
    "Address": "2620 N. Josey Lane",
    "Address2": "",
    "City": "Carrollton",
    "PostalCode": 75007,
    "State": "TX",
    "Latitude": 32.9867999,
    "Longitude": -96.8890441
  },
  {
    "unique_id": "5320-93abd491ea03c6083238843372ade892-c083fc4483024bcd4c860f7be4384aba",
    "store_id": "",
    "StoreName": "WinCo Foods - Denton",
    "StoreNumber": 140,
    "ChainId": 5320,
    "ChainName": "WinCo Foods",
    "Label": "WinCo Foods",
    "Address": "2645 W. University Drive",
    "Address2": "",
    "City": "Denton",
    "PostalCode": 76201,
    "State": "TX",
    "Latitude": 33.227518,
    "Longitude": -97.1667602
  },
  {
    "unique_id": "5320-5408614ca1e423a7b63f911696930fe4-b550ed7509e9cd04655beb217371302b",
    "store_id": "",
    "StoreName": "WinCo Foods - Ft. Worth, Tehama",
    "StoreNumber": 137,
    "ChainId": 5320,
    "ChainName": "WinCo Foods",
    "Label": "WinCo Foods",
    "Address": "8968 Tehama Ridge Pkwy",
    "Address2": "",
    "City": "Fort Worth",
    "PostalCode": 76177,
    "State": "TX",
    "Latitude": 32.9033165,
    "Longitude": -97.3210559
  },
  {
    "unique_id": "5320-45ad1a385834c0a2a96dbd9c89f56ed9-ae5e0f21b59b0c297b904861222e30e9",
    "store_id": "",
    "StoreName": "WinCo Foods - Arlington",
    "StoreNumber": 135,
    "ChainId": 5320,
    "ChainName": "WinCo Foods",
    "Label": "WinCo Foods",
    "Address": "4620 South Cooper St.",
    "Address2": "",
    "City": "Arlington",
    "PostalCode": 76017,
    "State": "TX",
    "Latitude": 32.6736663,
    "Longitude": -97.1392813
  },
  {
    "unique_id": "5320-9f998e8882530f85408c0d1bb7ce8e08-c7c3e86da2ca93587551b62af6c8251b",
    "store_id": "",
    "StoreName": "WinCo Foods - Garland",
    "StoreNumber": 131,
    "ChainId": 5320,
    "ChainName": "WinCo Foods",
    "Label": "WinCo Foods",
    "Address": "1122 W. Centerville Rd",
    "Address2": "",
    "City": "Garland",
    "PostalCode": 75041,
    "State": "TX",
    "Latitude": 32.8550163,
    "Longitude": -96.6438789
  },
  {
    "unique_id": "5320-0fabfe33df0015e2ce0dff8f1c5a688f-d45e8624893b93292fb7e8ea95f4cae1",
    "store_id": "",
    "StoreName": "WinCo Foods - North Richland Hills",
    "StoreNumber": 126,
    "ChainId": 5320,
    "ChainName": "WinCo Foods",
    "Label": "WinCo Foods",
    "Address": "5152 Rufe Snow Drive",
    "Address2": "",
    "City": "North Richland Hills",
    "PostalCode": 76180,
    "State": "TX",
    "Latitude": 32.8428632,
    "Longitude": -97.2354999
  },
  {
    "unique_id": "5320-145e0b4891c356b20c87afe23a08a78d-8e3a8049a9b41d8c87da283a139be3d6",
    "store_id": "",
    "StoreName": "WinCo Foods - Duncanville",
    "StoreNumber": 124,
    "ChainId": 5320,
    "ChainName": "WinCo Foods",
    "Label": "WinCo Foods",
    "Address": "800 S Cockrell Hill Rd",
    "Address2": "",
    "City": "Duncanville",
    "PostalCode": 75137,
    "State": "TX",
    "Latitude": 32.6455089,
    "Longitude": -96.888613
  },
  {
    "unique_id": "5320-dd34280852c09ffed04588a9316a3873-d99d0d936aa712d637f22bb3488ced03",
    "store_id": "",
    "StoreName": "WinCo Foods - McKinney",
    "StoreNumber": 122,
    "ChainId": 5320,
    "ChainName": "WinCo Foods",
    "Label": "WinCo Foods",
    "Address": "1800 North Graves Street",
    "Address2": "",
    "City": "McKinney",
    "PostalCode": 75069,
    "State": "TX",
    "Latitude": 33.215102,
    "Longitude": -96.626619
  },
  {
    "unique_id": "5320-6768d681412c1da5587faacefdeb8478-1b3500c34ab7169e5b17456bdc1d6710",
    "store_id": "",
    "StoreName": "WinCo Foods - Lewisville",
    "StoreNumber": 121,
    "ChainId": 5320,
    "ChainName": "WinCo Foods",
    "Label": "WinCo Foods",
    "Address": "1288 W Main St",
    "Address2": "",
    "City": "Lewisville",
    "PostalCode": 75069,
    "State": "TX",
    "Latitude": 33.0401058,
    "Longitude": -97.0259605
  },
  {
    "unique_id": "5320-0649a76a3704ca4380918a39ce909424-1f4cb33c41d7873909f4167cd6609149",
    "store_id": "",
    "StoreName": "WinCo Foods - Ft. Worth, Crowley Rd..",
    "StoreNumber": 120,
    "ChainId": 5320,
    "ChainName": "WinCo Foods",
    "Label": "WinCo Foods",
    "Address": "8000 Crowley Rd",
    "Address2": "",
    "City": "Fort Worth",
    "PostalCode": 76134,
    "State": "TX",
    "Latitude": 32.63284,
    "Longitude": -97.349597
  }
]
}
